2014-11-14T16:00:32.225,FE, 9, C,FF,BE, 0,mavlink_heartbeat_t,custom_mode,0,type,6,autopilot,8,base_mode,0,system_status,0,mavlink_version,3,,Len,17
2014-11-14T16:00:32.228,FE,1C, 1, 1, 1,1E,mavlink_attitude_t,time_boot_ms,232572,roll,-0.02968278,pitch,-0.01899347,yaw,1.048427,rollspeed,2.730289E-06,pitchspeed,0.0002146952,yawspeed,-3.761495E-05,,Len,36
2014-11-14T16:00:32.229,FE,14, 2, 1, 1,4A,mavlink_vfr_hud_t,airspeed,0,groundspeed,0,alt,0.99,climb,0,heading,60,throttle,16,,Len,28
2014-11-14T16:00:32.229,FE,1A, 3, 1, 1,1B,mavlink_raw_imu_t,time_usec,232630654,xacc,-19,yacc,28,zacc,-970,xgyro,1,ygyro,0,zgyro,0,xmag,85,ymag,-147,zmag,147,,Len,34
2014-11-14T16:00:32.229,FE,1C, 4, 1, 1,1E,mavlink_attitude_t,time_boot_ms,232692,roll,-0.02968168,pitch,-0.0190063,yaw,1.048438,rollspeed,2.730289E-06,pitchspeed,-0.0008495233,yawspeed,-3.761495E-05,,Len,36
2014-11-14T16:00:32.230,FE,14, 5, 1, 1,4A,mavlink_vfr_hud_t,airspeed,0,groundspeed,0,alt,0.99,climb,0,heading,60,throttle,16,,Len,28
2014-11-14T16:00:32.230,FE,1F, 6, 1, 1, 1,mavlink_sys_status_t,onboard_control_sensors_present,2153511,onboard_control_sensors_enabled,2097191,onboard_control_sensors_health,2153479,load,382,voltage_battery,0,current_battery,-1,drop_rate_comm,0,errors_comm,0,errors_count1,0,errors_count2,0,errors_count3,0,errors_count4,0,battery_remaining,255,,Len,39
2014-11-14T16:00:32.230,FE, 4, 7, 1, 1,98,mavlink_meminfo_t,brkval,6112,freemem,2004,,Len,12
2014-11-14T16:00:32.230,FE, 2, 8, 1, 1,2A,mavlink_mission_current_t,seq,0,,Len,10
2014-11-14T16:00:32.231,FE,1E, 9, 1, 1,18,mavlink_gps_raw_int_t,time_usec,0,lat,0,lon,0,alt,-17000,eph,9999,epv,65535,vel,0,cog,0,fix_type,1,satellites_visible,0,,Len,38
2014-11-14T16:00:32.231,FE,15, A, 1, 1,24,mavlink_servo_output_raw_t,time_usec,232732900,servo1_raw,1429,servo2_raw,1499,servo3_raw,1515,servo4_raw,1499,servo5_raw,1553,servo6_raw,1499,servo7_raw,967,servo8_raw,2073,port,0,,Len,29
2014-11-14T16:00:32.231,FE,16, B, 1, 1,23,mavlink_rc_channels_raw_t,time_boot_ms,232810,chan1_raw,1429,chan2_raw,1499,chan3_raw,1516,chan4_raw,1498,chan5_raw,1554,chan6_raw,1499,chan7_raw,966,chan8_raw,2073,port,0,rssi,0,,Len,30
2014-11-14T16:00:32.232,FE,1C, C, 1, 1,21,mavlink_global_position_int_t,time_boot_ms,232811,lat,0,lon,0,alt,-17000,relative_alt,1040,vx,0,vy,0,vz,0,hdg,6007,,Len,36
2014-11-14T16:00:32.232,FE,1C, D, 1, 1,1E,mavlink_attitude_t,time_boot_ms,232832,roll,-0.0296798,pitch,-0.01907454,yaw,1.048474,rollspeed,2.730289E-06,pitchspeed,-5.136128E-05,yawspeed,-3.761495E-05,,Len,36
2014-11-14T16:00:32.232,FE,14, E, 1, 1,4A,mavlink_vfr_hud_t,airspeed,0,groundspeed,0,alt,1.04,climb,0,heading,60,throttle,16,,Len,28
2014-11-14T16:00:32.233,FE,1C, F, 1, 1,A3,mavlink_ahrs_t,omegaIx,-0.00167076,omegaIy,0.001012846,omegaIz,-0.0003728417,accel_weight,0,renorm_val,0,error_rp,0.0003997702,error_yaw,0.0009046434,,Len,36
2014-11-14T16:00:32.233,FE, 3,10, 1, 1,A5,mavlink_hwstatus_t,Vcc,4918,I2Cerr,0,,Len,11
2014-11-14T16:00:32.233,FE, C,11, 1, 1, 2,mavlink_system_time_t,time_unix_usec,0,time_boot_ms,232893,,Len,20
2014-11-14T16:00:32.233,FE,1C,12, 1, 1,1E,mavlink_attitude_t,time_boot_ms,232951,roll,-0.02969818,pitch,-0.01906875,yaw,1.04846,rollspeed,2.730289E-06,pitchspeed,-0.0003174141,yawspeed,-3.761495E-05,,Len,36
2014-11-14T16:00:32.234,FE,14,13, 1, 1,4A,mavlink_vfr_hud_t,airspeed,0,groundspeed,0,alt,0.95,climb,0,heading,60,throttle,16,,Len,28
2014-11-14T16:00:32.234,FE,1C,14, 1, 1,1E,mavlink_attitude_t,time_boot_ms,233073,roll,-0.02970306,pitch,-0.01911115,yaw,1.048495,rollspeed,2.730289E-06,pitchspeed,-0.0008495233,yawspeed,0.001026605,,Len,36
2014-11-14T16:00:32.234,FE, 9,15, 1, 1, 0,mavlink_heartbeat_t,custom_mode,0,type,10,autopilot,3,base_mode,193,system_status,4,mavlink_version,3,,Len,17
2014-11-14T16:00:32.235,FE,14,16, 1, 1,4A,mavlink_vfr_hud_t,airspeed,0,groundspeed,0,alt,0.95,climb,0,heading,60,throttle,16,,Len,28
2014-11-14T16:00:32.235,FE,1A,17, 1, 1,1B,mavlink_raw_imu_t,time_usec,233151506,xacc,-19,yacc,28,zacc,-971,xgyro,1,ygyro,-1,zgyro,0,xmag,85,ymag,-147,zmag,148,,Len,34
2014-11-14T16:00:32.235,FE,1C,18, 1, 1,21,mavlink_global_position_int_t,time_boot_ms,233151,lat,0,lon,0,alt,-17000,relative_alt,950,vx,0,vy,0,vz,0,hdg,6007,,Len,36
2014-11-14T16:00:32.235,FE,1C,19, 1, 1,1E,mavlink_attitude_t,time_boot_ms,233192,roll,-0.02970454,pitch,-0.01915763,yaw,1.048513,rollspeed,2.730289E-06,pitchspeed,-0.0005834706,yawspeed,-3.761495E-05,,Len,36
2014-11-14T16:00:32.235,FE,14,1A, 1, 1,4A,mavlink_vfr_hud_t,airspeed,0,groundspeed,0,alt,0.98,climb,0,heading,60,throttle,16,,Len,28
2014-11-14T16:00:32.236,FE,1F,1B, 1, 1, 1,mavlink_sys_status_t,onboard_control_sensors_present,2153511,onboard_control_sensors_enabled,2097191,onboard_control_sensors_health,2153479,load,378,voltage_battery,0,current_battery,-1,drop_rate_comm,0,errors_comm,0,errors_count1,0,errors_count2,0,errors_count3,0,errors_count4,0,battery_remaining,255,,Len,39
2014-11-14T16:00:32.236,FE, 4,1C, 1, 1,98,mavlink_meminfo_t,brkval,6112,freemem,2004,,Len,12
2014-11-14T16:00:32.236,FE, 2,1D, 1, 1,2A,mavlink_mission_current_t,seq,0,,Len,10
2014-11-14T16:00:32.237,FE,1E,1E, 1, 1,18,mavlink_gps_raw_int_t,time_usec,0,lat,0,lon,0,alt,-17000,eph,9999,epv,65535,vel,0,cog,0,fix_type,1,satellites_visible,0,,Len,38
2014-11-14T16:00:32.237,FE,15,1F, 1, 1,24,mavlink_servo_output_raw_t,time_usec,233253388,servo1_raw,1429,servo2_raw,1499,servo3_raw,1516,servo4_raw,1499,servo5_raw,1553,servo6_raw,1499,servo7_raw,967,servo8_raw,2073,port,0,,Len,29
2014-11-14T16:00:32.238,FE,16,20, 1, 1,23,mavlink_rc_channels_raw_t,time_boot_ms,233331,chan1_raw,1429,chan2_raw,1499,chan3_raw,1515,chan4_raw,1499,chan5_raw,1554,chan6_raw,1498,chan7_raw,967,chan8_raw,2073,port,0,rssi,0,,Len,30
2014-11-14T16:00:32.238,FE,1C,21, 1, 1,1E,mavlink_attitude_t,time_boot_ms,233332,roll,-0.02970619,pitch,-0.01917997,yaw,1.048496,rollspeed,2.730289E-06,pitchspeed,0.0002146952,yawspeed,-3.761495E-05,,Len,36
2014-11-14T16:00:32.238,FE,14,22, 1, 1,4A,mavlink_vfr_hud_t,airspeed,0,groundspeed,0,alt,0.95,climb,0,heading,60,throttle,16,,Len,28
2014-11-14T16:00:32.239,FE,1C,23, 1, 1,A3,mavlink_ahrs_t,omegaIx,-0.00167076,omegaIy,0.001012846,omegaIz,-0.0003728417,accel_weight,0,renorm_val,0,error_rp,0.0004439233,error_yaw,0.002031564,,Len,36
2014-11-14T16:00:32.239,FE, 3,24, 1, 1,A5,mavlink_hwstatus_t,Vcc,4940,I2Cerr,0,,Len,11
2014-11-14T16:00:32.239,FE, C,25, 1, 1, 2,mavlink_system_time_t,time_unix_usec,0,time_boot_ms,233432,,Len,20
2014-11-14T16:00:32.240,FE,1C,26, 1, 1,1E,mavlink_attitude_t,time_boot_ms,233451,roll,-0.02970819,pitch,-0.01918116,yaw,1.048472,rollspeed,2.730289E-06,pitchspeed,-0.0005834706,yawspeed,-3.761495E-05,,Len,36
2014-11-14T16:00:32.240,FE,14,27, 1, 1,4A,mavlink_vfr_hud_t,airspeed,0,groundspeed,0,alt,1.02,climb,0,heading,60,throttle,16,,Len,28
2014-11-14T16:00:32.240,FE,1C,28, 1, 1,21,mavlink_global_position_int_t,time_boot_ms,233495,lat,0,lon,0,alt,-17000,relative_alt,1020,vx,0,vy,0,vz,0,hdg,6007,,Len,36
2014-11-14T16:00:32.240,FE,1C,29, 1, 1,1E,mavlink_attitude_t,time_boot_ms,233575,roll,-0.02971228,pitch,-0.01919282,yaw,1.048459,rollspeed,2.730289E-06,pitchspeed,0.0002146952,yawspeed,-3.761495E-05,,Len,36
2014-11-14T16:00:32.347,FE,14,2A, 1, 1,4A,mavlink_vfr_hud_t,airspeed,0,groundspeed,0,alt,1.05,climb,0,heading,60,throttle,16,,Len,28
2014-11-14T16:00:32.373,FE,1A,2B, 1, 1,1B,mavlink_raw_imu_t,time_usec,233675044,xacc,-17,yacc,29,zacc,-969,xgyro,1,ygyro,-1,zgyro,0,xmag,84,ymag,-147,zmag,148,,Len,34
2014-11-14T16:00:32.373,FE,1C,2C, 1, 1,1E,mavlink_attitude_t,time_boot_ms,233693,roll,-0.0296968,pitch,-0.01920871,yaw,1.048485,rollspeed,2.730289E-06,pitchspeed,-0.0005834706,yawspeed,-3.761495E-05,,Len,36
2014-11-14T16:00:32.399,FE,14,2D, 1, 1,4A,mavlink_vfr_hud_t,airspeed,0,groundspeed,0,alt,0.98,climb,0,heading,60,throttle,16,,Len,28
2014-11-14T16:00:32.399,FE,1F,2E, 1, 1, 1,mavlink_sys_status_t,onboard_control_sensors_present,2153511,onboard_control_sensors_enabled,2097191,onboard_control_sensors_health,2153479,load,384,voltage_battery,0,current_battery,-1,drop_rate_comm,0,errors_comm,0,errors_count1,0,errors_count2,0,errors_count3,0,errors_count4,0,battery_remaining,255,,Len,39
2014-11-14T16:00:32.400,FE, 4,2F, 1, 1,98,mavlink_meminfo_t,brkval,6112,freemem,2004,,Len,12
2014-11-14T16:00:32.400,FE, 2,30, 1, 1,2A,mavlink_mission_current_t,seq,0,,Len,10
2014-11-14T16:00:32.428,FE,1E,31, 1, 1,18,mavlink_gps_raw_int_t,time_usec,0,lat,0,lon,0,alt,-17000,eph,9999,epv,65535,vel,0,cog,0,fix_type,1,satellites_visible,0,,Len,38
2014-11-14T16:00:32.428,FE,15,32, 1, 1,24,mavlink_servo_output_raw_t,time_usec,233776027,servo1_raw,1428,servo2_raw,1499,servo3_raw,1516,servo4_raw,1499,servo5_raw,1553,servo6_raw,1499,servo7_raw,967,servo8_raw,2073,port,0,,Len,29
2014-11-14T16:00:32.428,FE,16,33, 1, 1,23,mavlink_rc_channels_raw_t,time_boot_ms,233812,chan1_raw,1428,chan2_raw,1499,chan3_raw,1516,chan4_raw,1499,chan5_raw,1553,chan6_raw,1499,chan7_raw,966,chan8_raw,2073,port,0,rssi,0,,Len,30
2014-11-14T16:00:32.444,FE, 9,BE,33,44,A6,mavlink_radio_t,rxerrors,0,fixed,2,rssi,164,remrssi,172,txbuf,100,noise,46,remnoise,23,,Len,17
2014-11-14T16:00:32.444,FE, 9,BE,33,44,6D,mavlink_radio_status_t,rxerrors,0,fixed,2,rssi,164,remrssi,172,txbuf,100,noise,46,remnoise,23,,Len,17
2014-11-14T16:00:32.476,FE,1C,34, 1, 1,1E,mavlink_attitude_t,time_boot_ms,233812,roll,-0.02971688,pitch,-0.01918685,yaw,1.048528,rollspeed,2.730289E-06,pitchspeed,0.0002146952,yawspeed,-3.761495E-05,,Len,36
2014-11-14T16:00:32.508,FE,1C,35, 1, 1,21,mavlink_global_position_int_t,time_boot_ms,233832,lat,0,lon,0,alt,-17000,relative_alt,940,vx,0,vy,0,vz,0,hdg,6007,,Len,36
2014-11-14T16:00:32.524,FE,14,36, 1, 1,4A,mavlink_vfr_hud_t,airspeed,0,groundspeed,0,alt,0.94,climb,0,heading,60,throttle,16,,Len,28
2014-11-14T16:00:32.524,FE,1C,37, 1, 1,1E,mavlink_attitude_t,time_boot_ms,233934,roll,-0.02969661,pitch,-0.01914356,yaw,1.048542,rollspeed,2.730289E-06,pitchspeed,0.0002146952,yawspeed,-3.761495E-05,,Len,36
2014-11-14T16:00:32.550,FE,14,38, 1, 1,4A,mavlink_vfr_hud_t,airspeed,0,groundspeed,0,alt,0.99,climb,0,heading,60,throttle,16,,Len,28
2014-11-14T16:00:32.551,FE,1C,39, 1, 1,A3,mavlink_ahrs_t,omegaIx,-0.00167076,omegaIy,0.001012846,omegaIz,-0.0003728417,accel_weight,0,renorm_val,0,error_rp,0.0003867831,error_yaw,0.00127456,,Len,36
2014-11-14T16:00:32.551,FE, 3,3A, 1, 1,A5,mavlink_hwstatus_t,Vcc,4940,I2Cerr,0,,Len,11
2014-11-14T16:00:32.593,FE, C,3B, 1, 1, 2,mavlink_system_time_t,time_unix_usec,0,time_boot_ms,233953,,Len,20
2014-11-14T16:00:32.593,FE,1C,3C, 1, 1,1E,mavlink_attitude_t,time_boot_ms,234052,roll,-0.02970026,pitch,-0.01915269,yaw,1.048514,rollspeed,2.730289E-06,pitchspeed,0.0002146952,yawspeed,-3.761495E-05,,Len,36
2014-11-14T16:00:32.594,FE,14,3D, 1, 1,4A,mavlink_vfr_hud_t,airspeed,0,groundspeed,0,alt,1.09,climb,0,heading,60,throttle,16,,Len,28
2014-11-14T16:00:32.689,FE, 9,3E, 1, 1, 0,mavlink_heartbeat_t,custom_mode,0,type,10,autopilot,3,base_mode,193,system_status,4,mavlink_version,3,,Len,17
2014-11-14T16:00:32.691,FE, 2, D,FF,BE,15,mavlink_param_request_list_t,target_system,1,target_component,1,,Len,10
2014-11-14T16:00:32.706,FE,1C,3F, 1, 1,21,mavlink_global_position_int_t,time_boot_ms,234174,lat,0,lon,0,alt,-17000,relative_alt,990,vx,0,vy,0,vz,0,hdg,6007,,Len,36
2014-11-14T16:00:32.726,FE,1C,40, 1, 1,1E,mavlink_attitude_t,time_boot_ms,234175,roll,-0.02970485,pitch,-0.01913062,yaw,1.048487,rollspeed,2.730289E-06,pitchspeed,-5.136128E-05,yawspeed,-0.0003036696,,Len,36
2014-11-14T16:00:32.744,FE,1A,41, 1, 1,1B,mavlink_raw_imu_t,time_usec,234193496,xacc,-18,yacc,28,zacc,-969,xgyro,1,ygyro,-1,zgyro,0,xmag,85,ymag,-147,zmag,147,,Len,34
2014-11-14T16:00:32.745,FE,14,42, 1, 1,4A,mavlink_vfr_hud_t,airspeed,0,groundspeed,0,alt,0.99,climb,0,heading,60,throttle,16,,Len,28
2014-11-14T16:00:32.757,FE,1F,43, 1, 1, 1,mavlink_sys_status_t,onboard_control_sensors_present,2153511,onboard_control_sensors_enabled,2097191,onboard_control_sensors_health,2153479,load,381,voltage_battery,0,current_battery,-1,drop_rate_comm,0,errors_comm,0,errors_count1,0,errors_count2,0,errors_count3,0,errors_count4,0,battery_remaining,255,,Len,39
2014-11-14T16:00:32.773,FE, 4,44, 1, 1,98,mavlink_meminfo_t,brkval,6112,freemem,2004,,Len,12
2014-11-14T16:00:32.773,FE, 2,45, 1, 1,2A,mavlink_mission_current_t,seq,0,,Len,10
2014-11-14T16:00:32.773,FE,1E,46, 1, 1,18,mavlink_gps_raw_int_t,time_usec,0,lat,0,lon,0,alt,-17000,eph,9999,epv,65535,vel,0,cog,0,fix_type,1,satellites_visible,0,,Len,38
2014-11-14T16:00:32.814,FE,15,47, 1, 1,24,mavlink_servo_output_raw_t,time_usec,234296343,servo1_raw,1429,servo2_raw,1499,servo3_raw,1515,servo4_raw,1499,servo5_raw,1553,servo6_raw,1499,servo7_raw,967,servo8_raw,2073,port,0,,Len,29
2014-11-14T16:00:32.814,FE,16,48, 1, 1,23,mavlink_rc_channels_raw_t,time_boot_ms,234313,chan1_raw,1429,chan2_raw,1499,chan3_raw,1516,chan4_raw,1498,chan5_raw,1554,chan6_raw,1499,chan7_raw,966,chan8_raw,2073,port,0,rssi,0,,Len,30
2014-11-14T16:00:32.829,FE,1C,49, 1, 1,1E,mavlink_attitude_t,time_boot_ms,234314,roll,-0.0297529,pitch,-0.01917748,yaw,1.04846,rollspeed,-0.0005293809,pitchspeed,-0.0008495233,yawspeed,-3.761495E-05,,Len,36
2014-11-14T16:00:32.858,FE,14,4A, 1, 1,4A,mavlink_vfr_hud_t,airspeed,0,groundspeed,0,alt,0.95,climb,0,heading,60,throttle,16,,Len,28
2014-11-14T16:00:32.858,FE,1C,4B, 1, 1,1E,mavlink_attitude_t,time_boot_ms,234433,roll,-0.02977189,pitch,-0.0191645,yaw,1.048447,rollspeed,-0.0005293809,pitchspeed,0.0002146952,yawspeed,-3.761495E-05,,Len,36
2014-11-14T16:00:32.858,FE,14,4C, 1, 1,4A,mavlink_vfr_hud_t,airspeed,0,groundspeed,0,alt,1.05,climb,0,heading,60,throttle,16,,Len,28
2014-11-14T16:00:32.885,FE,1C,4D, 1, 1,A3,mavlink_ahrs_t,omegaIx,-0.00167076,omegaIy,0.001012846,omegaIz,-0.0003728417,accel_weight,0,renorm_val,0,error_rp,0.0006243116,error_yaw,0.0006339404,,Len,36
2014-11-14T16:00:32.885,FE, 3,4E, 1, 1,A5,mavlink_hwstatus_t,Vcc,4897,I2Cerr,0,,Len,11
2014-11-14T16:00:32.885,FE, C,4F, 1, 1, 2,mavlink_system_time_t,time_unix_usec,0,time_boot_ms,234495,,Len,20
2014-11-14T16:00:32.886,FE,1C,50, 1, 1,21,mavlink_global_position_int_t,time_boot_ms,234513,lat,0,lon,0,alt,-17000,relative_alt,1010,vx,0,vy,0,vz,0,hdg,6007,,Len,36
2014-11-14T16:00:33.029,FE,1C,51, 1, 1,1E,mavlink_attitude_t,time_boot_ms,234553,roll,-0.0297795,pitch,-0.01918857,yaw,1.048454,rollspeed,2.730289E-06,pitchspeed,0.0002146952,yawspeed,-3.761495E-05,,Len,36
2014-11-14T16:00:33.033,FE, 9, E,FF,BE, 0,mavlink_heartbeat_t,custom_mode,0,type,6,autopilot,8,base_mode,0,system_status,0,mavlink_version,3,,Len,17
2014-11-14T16:00:33.045,FE,14,52, 1, 1,4A,mavlink_vfr_hud_t,airspeed,0,groundspeed,0,alt,0.92,climb,0,heading,60,throttle,16,,Len,28
2014-11-14T16:00:33.136,FE, 9,BF,33,44,A6,mavlink_radio_t,rxerrors,0,fixed,2,rssi,165,remrssi,171,txbuf,100,noise,41,remnoise,24,,Len,17
2014-11-14T16:00:33.137,FE, 9,BF,33,44,6D,mavlink_radio_status_t,rxerrors,0,fixed,2,rssi,165,remrssi,171,txbuf,100,noise,41,remnoise,24,,Len,17
2014-11-14T16:00:33.204,FE,33,53, 1, 1,FD,mavlink_statustext_t,severity,1,text,ArduRover v2.46 (5ca3c4ba),,Len,59
2014-11-14T16:00:33.205,FE,1C,54, 1, 1,1E,mavlink_attitude_t,time_boot_ms,234676,roll,-0.02978262,pitch,-0.01918941,yaw,1.048434,rollspeed,2.730289E-06,pitchspeed,-5.136128E-05,yawspeed,-3.761495E-05,,Len,36
2014-11-14T16:00:33.234,FE,19,55, 1, 1,16,mavlink_param_value_t,param_value,16,param_count,247,param_index,0,param_id,FORMAT_VERSION,param_type,4,,Len,33
2014-11-14T16:00:33.235,FE,19,56, 1, 1,16,mavlink_param_value_t,param_value,20,param_count,247,param_index,1,param_id,SYSID_SW_TYPE,param_type,2,,Len,33
2014-11-14T16:00:33.236,FE,19,57, 1, 1,16,mavlink_param_value_t,param_value,16254,param_count,247,param_index,2,param_id,LOG_BITMASK,param_type,6,,Len,33
2014-11-14T16:00:33.267,FE,14,58, 1, 1,4A,mavlink_vfr_hud_t,airspeed,0,groundspeed,0,alt,0.93,climb,0,heading,60,throttle,16,,Len,28
2014-11-14T16:00:33.290,FE,1A,59, 1, 1,1B,mavlink_raw_imu_t,time_usec,234714452,xacc,-18,yacc,28,zacc,-970,xgyro,1,ygyro,0,zgyro,0,xmag,85,ymag,-147,zmag,147,,Len,34
2014-11-14T16:00:33.290,FE,19,5A, 1, 1,16,mavlink_param_value_t,param_value,45,param_count,247,param_index,3,param_id,SYS_NUM_RESETS,param_type,4,,Len,33
2014-11-14T16:00:33.306,FE,19,5B, 1, 1,16,mavlink_param_value_t,param_value,0,param_count,247,param_index,4,param_id,RST_SWITCH_CH,param_type,2,,Len,33
2014-11-14T16:00:33.338,FE,19,5C, 1, 1,16,mavlink_param_value_t,param_value,0,param_count,247,param_index,5,param_id,INITIAL_MODE,param_type,2,,Len,33
2014-11-14T16:00:33.341,FE,1F,5D, 1, 1, 1,mavlink_sys_status_t,onboard_control_sensors_present,2153511,onboard_control_sensors_enabled,2097191,onboard_control_sensors_health,2153479,load,386,voltage_battery,0,current_battery,-1,drop_rate_comm,0,errors_comm,0,errors_count1,0,errors_count2,0,errors_count3,0,errors_count4,0,battery_remaining,255,,Len,39
2014-11-14T16:00:33.341,FE, 4,5E, 1, 1,98,mavlink_meminfo_t,brkval,6112,freemem,2004,,Len,12
2014-11-14T16:00:33.358,FE, 2,5F, 1, 1,2A,mavlink_mission_current_t,seq,0,,Len,10
2014-11-14T16:00:33.358,FE,1E,60, 1, 1,18,mavlink_gps_raw_int_t,time_usec,0,lat,0,lon,0,alt,-17000,eph,9999,epv,65535,vel,0,cog,0,fix_type,1,satellites_visible,0,,Len,38
2014-11-14T16:00:33.358,FE,15,61, 1, 1,24,mavlink_servo_output_raw_t,time_usec,234855319,servo1_raw,1429,servo2_raw,1499,servo3_raw,1515,servo4_raw,1499,servo5_raw,1553,servo6_raw,1499,servo7_raw,967,servo8_raw,2073,port,0,,Len,29
2014-11-14T16:00:33.359,FE,16,62, 1, 1,23,mavlink_rc_channels_raw_t,time_boot_ms,234933,chan1_raw,1429,chan2_raw,1499,chan3_raw,1516,chan4_raw,1498,chan5_raw,1554,chan6_raw,1499,chan7_raw,966,chan8_raw,2073,port,0,rssi,0,,Len,30
2014-11-14T16:00:33.390,FE,1C,63, 1, 1,21,mavlink_global_position_int_t,time_boot_ms,234934,lat,0,lon,0,alt,-17000,relative_alt,1010,vx,0,vy,0,vz,0,hdg,6006,,Len,36
2014-11-14T16:00:33.391,FE,19,64, 1, 1,16,mavlink_param_value_t,param_value,-1,param_count,247,param_index,6,param_id,RSSI_PIN,param_type,2,,Len,33
2014-11-14T16:00:33.433,FE,19,65, 1, 1,16,mavlink_param_value_t,param_value,1,param_count,247,param_index,7,param_id,SYSID_THISMAV,param_type,4,,Len,33
2014-11-14T16:00:33.434,FE,1C,66, 1, 1,A3,mavlink_ahrs_t,omegaIx,-0.00167076,omegaIy,0.001012846,omegaIz,-0.0003728417,accel_weight,0,renorm_val,0,error_rp,0.0002793425,error_yaw,0.001234035,,Len,36
2014-11-14T16:00:33.434,FE, 3,67, 1, 1,A5,mavlink_hwstatus_t,Vcc,4897,I2Cerr,0,,Len,11
2014-11-14T16:00:33.435,FE, C,68, 1, 1, 2,mavlink_system_time_t,time_unix_usec,0,time_boot_ms,235015,,Len,20
2014-11-14T16:00:33.449,FE,19,69, 1, 1,16,mavlink_param_value_t,param_value,255,param_count,247,param_index,8,param_id,SYSID_MYGCS,param_type,4,,Len,33
2014-11-14T16:00:33.475,FE,19,6A, 1, 1,16,mavlink_param_value_t,param_value,115,param_count,247,param_index,9,param_id,SERIAL0_BAUD,param_type,4,,Len,33
2014-11-14T16:00:33.477,FE,19,6B, 1, 1,16,mavlink_param_value_t,param_value,57,param_count,247,param_index,10,param_id,SERIAL1_BAUD,param_type,4,,Len,33
2014-11-14T16:00:33.478,FE, 9,6C, 1, 1, 0,mavlink_heartbeat_t,custom_mode,0,type,10,autopilot,3,base_mode,193,system_status,4,mavlink_version,3,,Len,17
2014-11-14T16:00:33.503,FE,1C,6D, 1, 1,1E,mavlink_attitude_t,time_boot_ms,235095,roll,-0.02981775,pitch,-0.01916911,yaw,1.048344,rollspeed,2.730289E-06,pitchspeed,-0.0008495233,yawspeed,0.0002284397,,Len,36
2014-11-14T16:00:33.503,FE,14,6E, 1, 1,4A,mavlink_vfr_hud_t,airspeed,0,groundspeed,0,alt,1.01,climb,0,heading,60,throttle,16,,Len,28
2014-11-14T16:00:33.600,FE,19,6F, 1, 1,16,mavlink_param_value_t,param_value,0,param_count,247,param_index,11,param_id,TELEM_DELAY,param_type,2,,Len,33
2014-11-14T16:00:33.727,FE,19,70, 1, 1,16,mavlink_param_value_t,param_value,0,param_count,247,param_index,12,param_id,SKIP_GYRO_CAL,param_type,2,,Len,33
2014-11-14T16:00:33.743,FE,19,71, 1, 1,16,mavlink_param_value_t,param_value,1,param_count,247,param_index,13,param_id,MAG_ENABLE,param_type,2,,Len,33
2014-11-14T16:00:33.746,FE,19,72, 1, 1,16,mavlink_param_value_t,param_value,-1,param_count,247,param_index,14,param_id,AUTO_TRIGGER_PIN,param_type,2,,Len,33
2014-11-14T16:00:33.759,FE,19,73, 1, 1,16,mavlink_param_value_t,param_value,0,param_count,247,param_index,15,param_id,AUTO_KICKSTART,param_type,9,,Len,33
2014-11-14T16:00:33.761,FE,19,74, 1, 1,16,mavlink_param_value_t,param_value,5,param_count,247,param_index,16,param_id,CRUISE_SPEED,param_type,9,,Len,33
2014-11-14T16:00:33.789,FE,19,75, 1, 1,16,mavlink_param_value_t,param_value,50,param_count,247,param_index,17,param_id,SPEED_TURN_GAIN,param_type,2,,Len,33
2014-11-14T16:00:33.790,FE,19,76, 1, 1,16,mavlink_param_value_t,param_value,2,param_count,247,param_index,18,param_id,SPEED_TURN_DIST,param_type,9,,Len,33
2014-11-14T16:00:33.791,FE,19,77, 1, 1,16,mavlink_param_value_t,param_value,0,param_count,247,param_index,19,param_id,BRAKING_PERCENT,param_type,2,,Len,33
2014-11-14T16:00:33.965,FE,1C,78, 1, 1,1E,mavlink_attitude_t,time_boot_ms,235515,roll,-0.02984082,pitch,-0.0191791,yaw,1.048384,rollspeed,2.730289E-06,pitchspeed,0.0002146952,yawspeed,-3.761495E-05,,Len,36
2014-11-14T16:00:33.965,FE,19,79, 1, 1,16,mavlink_param_value_t,param_value,3,param_count,247,param_index,20,param_id,BRAKING_SPEEDERR,param_type,9,,Len,33
2014-11-14T16:00:34.007,FE,19,7A, 1, 1,16,mavlink_param_value_t,param_value,30,param_count,247,param_index,21,param_id,PIVOT_TURN_ANGLE,param_type,4,,Len,33
2014-11-14T16:00:34.009,FE,19,7B, 1, 1,16,mavlink_param_value_t,param_value,1,param_count,247,param_index,22,param_id,CH7_OPTION,param_type,2,,Len,33
2014-11-14T16:00:34.010,FE,14,7C, 1, 1,4A,mavlink_vfr_hud_t,airspeed,0,groundspeed,0,alt,1.04,climb,0,heading,60,throttle,16,,Len,28
2014-11-14T16:00:34.010,FE,19,7D, 1, 1,16,mavlink_param_value_t,param_value,1091,param_count,247,param_index,23,param_id,RC1_MIN,param_type,4,,Len,33
2014-11-14T16:00:34.022,FE,19,7E, 1, 1,16,mavlink_param_value_t,param_value,1424,param_count,247,param_index,24,param_id,RC1_TRIM,param_type,4,,Len,33
2014-11-14T16:00:34.039,FE,19,7F, 1, 1,16,mavlink_param_value_t,param_value,1919,param_count,247,param_index,25,param_id,RC1_MAX,param_type,4,,Len,33
2014-11-14T16:00:34.045,FE, 9, F,FF,BE, 0,mavlink_heartbeat_t,custom_mode,0,type,6,autopilot,8,base_mode,0,system_status,0,mavlink_version,3,,Len,17
2014-11-14T16:00:34.205,FE,19,80, 1, 1,16,mavlink_param_value_t,param_value,-1,param_count,247,param_index,26,param_id,RC1_REV,param_type,2,,Len,33
2014-11-14T16:00:34.207,FE,19,81, 1, 1,16,mavlink_param_value_t,param_value,30,param_count,247,param_index,27,param_id,RC1_DZ,param_type,4,,Len,33
2014-11-14T16:00:34.209,FE,19,82, 1, 1,16,mavlink_param_value_t,param_value,1498,param_count,247,param_index,28,param_id,RC2_MIN,param_type,4,,Len,33
2014-11-14T16:00:34.237,FE, 9,C0,33,44,A6,mavlink_radio_t,rxerrors,0,fixed,2,rssi,167,remrssi,174,txbuf,100,noise,50,remnoise,21,,Len,17
2014-11-14T16:00:34.238,FE, 9,C0,33,44,6D,mavlink_radio_status_t,rxerrors,0,fixed,2,rssi,167,remrssi,174,txbuf,100,noise,50,remnoise,21,,Len,17
2014-11-14T16:00:34.301,FE,19,83, 1, 1,16,mavlink_param_value_t,param_value,1499,param_count,247,param_index,29,param_id,RC2_TRIM,param_type,4,,Len,33
2014-11-14T16:00:34.423,FE,19,84, 1, 1,16,mavlink_param_value_t,param_value,1499,param_count,247,param_index,30,param_id,RC2_MAX,param_type,4,,Len,33
2014-11-14T16:00:34.425,FE,19,85, 1, 1,16,mavlink_param_value_t,param_value,1,param_count,247,param_index,31,param_id,RC2_REV,param_type,2,,Len,33
2014-11-14T16:00:34.534,FE,1C,86, 1, 1,1E,mavlink_attitude_t,time_boot_ms,235935,roll,-0.02979772,pitch,-0.01923291,yaw,1.048498,rollspeed,1.649954E-06,pitchspeed,0.0002041481,yawspeed,-3.334373E-05,,Len,36
2014-11-14T16:00:34.534,FE,14,87, 1, 1,4A,mavlink_vfr_hud_t,airspeed,0,groundspeed,0,alt,1.07,climb,0,heading,60,throttle,16,,Len,28
2014-11-14T16:00:34.646,FE,19,88, 1, 1,16,mavlink_param_value_t,param_value,0,param_count,247,param_index,32,param_id,RC2_DZ,param_type,4,,Len,33
2014-11-14T16:00:34.662,FE,19,89, 1, 1,16,mavlink_param_value_t,param_value,0,param_count,247,param_index,33,param_id,RC2_FUNCTION,param_type,2,,Len,33
2014-11-14T16:00:34.663,FE,19,8A, 1, 1,16,mavlink_param_value_t,param_value,1224,param_count,247,param_index,34,param_id,RC3_MIN,param_type,4,,Len,33
2014-11-14T16:00:34.704,FE, 9,8B, 1, 1, 0,mavlink_heartbeat_t,custom_mode,0,type,10,autopilot,3,base_mode,193,system_status,4,mavlink_version,3,,Len,17
2014-11-14T16:00:34.704,FE,19,8C, 1, 1,16,mavlink_param_value_t,param_value,1232,param_count,247,param_index,35,param_id,RC3_TRIM,param_type,4,,Len,33
2014-11-14T16:00:34.706,FE,19,8D, 1, 1,16,mavlink_param_value_t,param_value,1923,param_count,247,param_index,36,param_id,RC3_MAX,param_type,4,,Len,33
2014-11-14T16:00:34.707,FE,19,8E, 1, 1,16,mavlink_param_value_t,param_value,1,param_count,247,param_index,37,param_id,RC3_REV,param_type,2,,Len,33
2014-11-14T16:00:34.733,FE,1C,8F, 1, 1,21,mavlink_global_position_int_t,time_boot_ms,236196,lat,0,lon,0,alt,-17000,relative_alt,1070,vx,0,vy,0,vz,0,hdg,6007,,Len,36
2014-11-14T16:00:34.733,FE,19,90, 1, 1,16,mavlink_param_value_t,param_value,30,param_count,247,param_index,38,param_id,RC3_DZ,param_type,4,,Len,33
2014-11-14T16:00:34.734,FE,19,91, 1, 1,16,mavlink_param_value_t,param_value,1498,param_count,247,param_index,39,param_id,RC4_MIN,param_type,4,,Len,33
2014-11-14T16:00:34.750,FE,19,92, 1, 1,16,mavlink_param_value_t,param_value,1499,param_count,247,param_index,40,param_id,RC4_TRIM,param_type,4,,Len,33
2014-11-14T16:00:34.877,FE,1C,93, 1, 1,1E,mavlink_attitude_t,time_boot_ms,236357,roll,-0.02981837,pitch,-0.01920513,yaw,1.04846,rollspeed,1.649954E-06,pitchspeed,0.0002041481,yawspeed,-3.334373E-05,,Len,36
2014-11-14T16:00:34.877,FE,19,94, 1, 1,16,mavlink_param_value_t,param_value,1499,param_count,247,param_index,41,param_id,RC4_MAX,param_type,4,,Len,33
2014-11-14T16:00:35.001,FE,19,95, 1, 1,16,mavlink_param_value_t,param_value,1,param_count,247,param_index,42,param_id,RC4_REV,param_type,2,,Len,33
2014-11-14T16:00:35.002,FE,19,96, 1, 1,16,mavlink_param_value_t,param_value,0,param_count,247,param_index,43,param_id,RC4_DZ,param_type,4,,Len,33
2014-11-14T16:00:35.056,FE, 9,10,FF,BE, 0,mavlink_heartbeat_t,custom_mode,0,type,6,autopilot,8,base_mode,0,system_status,0,mavlink_version,3,,Len,17
2014-11-14T16:00:35.123,FE,14,97, 1, 1,4A,mavlink_vfr_hud_t,airspeed,0,groundspeed,0,alt,1.02,climb,0,heading,60,throttle,16,,Len,28
2014-11-14T16:00:35.123,FE,19,98, 1, 1,16,mavlink_param_value_t,param_value,0,param_count,247,param_index,44,param_id,RC4_FUNCTION,param_type,2,,Len,33
2014-11-14T16:00:35.125,FE,19,99, 1, 1,16,mavlink_param_value_t,param_value,1553,param_count,247,param_index,45,param_id,RC5_MIN,param_type,4,,Len,33
2014-11-14T16:00:35.164,FE,19,9A, 1, 1,16,mavlink_param_value_t,param_value,1553,param_count,247,param_index,46,param_id,RC5_TRIM,param_type,4,,Len,33
2014-11-14T16:00:35.167,FE,19,9B, 1, 1,16,mavlink_param_value_t,param_value,1554,param_count,247,param_index,47,param_id,RC5_MAX,param_type,4,,Len,33
2014-11-14T16:00:35.169,FE,19,9C, 1, 1,16,mavlink_param_value_t,param_value,1,param_count,247,param_index,48,param_id,RC5_REV,param_type,2,,Len,33
2014-11-14T16:00:35.185,FE,19,9D, 1, 1,16,mavlink_param_value_t,param_value,0,param_count,247,param_index,49,param_id,RC5_DZ,param_type,4,,Len,33
2014-11-14T16:00:35.186,FE,19,9E, 1, 1,16,mavlink_param_value_t,param_value,0,param_count,247,param_index,50,param_id,RC5_FUNCTION,param_type,2,,Len,33
2014-11-14T16:00:35.187,FE,19,9F, 1, 1,16,mavlink_param_value_t,param_value,1498,param_count,247,param_index,51,param_id,RC6_MIN,param_type,4,,Len,33
2014-11-14T16:00:35.188,FE, 9,C1,33,44,A6,mavlink_radio_t,rxerrors,0,fixed,2,rssi,168,remrssi,175,txbuf,100,noise,44,remnoise,19,,Len,17
2014-11-14T16:00:35.201,FE, 9,C1,33,44,6D,mavlink_radio_status_t,rxerrors,0,fixed,2,rssi,168,remrssi,175,txbuf,100,noise,44,remnoise,19,,Len,17
2014-11-14T16:00:35.253,FE,19,A0, 1, 1,16,mavlink_param_value_t,param_value,1499,param_count,247,param_index,52,param_id,RC6_TRIM,param_type,4,,Len,33
2014-11-14T16:00:35.278,FE,1A,A1, 1, 1,1B,mavlink_raw_imu_t,time_usec,236738124,xacc,-18,yacc,29,zacc,-969,xgyro,1,ygyro,-1,zgyro,0,xmag,84,ymag,-146,zmag,148,,Len,34
2014-11-14T16:00:35.278,FE,2A,A2, 1, 1,96,mavlink_sensor_offsets_t,mag_declination,0,raw_press,100680,raw_temp,2862,gyro_cal_x,-0.01976522,gyro_cal_y,-0.04177063,gyro_cal_z,-0.01204164,accel_cal_x,0,accel_cal_y,0,accel_cal_z,0,mag_ofs_x,-74,mag_ofs_y,-48,mag_ofs_z,-6,,Len,50
2014-11-14T16:00:35.304,FE,1C,A3, 1, 1,1E,mavlink_attitude_t,time_boot_ms,236799,roll,-0.02978664,pitch,-0.01933656,yaw,1.048415,rollspeed,0.001065869,pitchspeed,-0.0008600705,yawspeed,-3.334373E-05,,Len,36
2014-11-14T16:00:35.304,FE,14,A4, 1, 1,4A,mavlink_vfr_hud_t,airspeed,0,groundspeed,0,alt,1.09,climb,0,heading,60,throttle,16,,Len,28
2014-11-14T16:00:35.304,FE,19,A5, 1, 1,16,mavlink_param_value_t,param_value,1499,param_count,247,param_index,53,param_id,RC6_MAX,param_type,4,,Len,33
2014-11-14T16:00:35.320,FE,19,A6, 1, 1,16,mavlink_param_value_t,param_value,1,param_count,247,param_index,54,param_id,RC6_REV,param_type,2,,Len,33
2014-11-14T16:00:35.336,FE,19,A7, 1, 1,16,mavlink_param_value_t,param_value,0,param_count,247,param_index,55,param_id,RC6_DZ,param_type,4,,Len,33
2014-11-14T16:00:35.448,FE,1F,A8, 1, 1, 1,mavlink_sys_status_t,onboard_control_sensors_present,2153511,onboard_control_sensors_enabled,2097191,onboard_control_sensors_health,2153479,load,388,voltage_battery,0,current_battery,-1,drop_rate_comm,0,errors_comm,0,errors_count1,0,errors_count2,0,errors_count3,0,errors_count4,0,battery_remaining,255,,Len,39
2014-11-14T16:00:35.448,FE, 4,A9, 1, 1,98,mavlink_meminfo_t,brkval,6112,freemem,2004,,Len,12
2014-11-14T16:00:35.448,FE, 2,AA, 1, 1,2A,mavlink_mission_current_t,seq,0,,Len,10
2014-11-14T16:00:35.560,FE,1E,AB, 1, 1,18,mavlink_gps_raw_int_t,time_usec,0,lat,0,lon,0,alt,-17000,eph,9999,epv,65535,vel,0,cog,0,fix_type,1,satellites_visible,0,,Len,38
2014-11-14T16:00:35.576,FE,15,AC, 1, 1,24,mavlink_servo_output_raw_t,time_usec,236882179,servo1_raw,1429,servo2_raw,1499,servo3_raw,1515,servo4_raw,1499,servo5_raw,1553,servo6_raw,1499,servo7_raw,967,servo8_raw,2073,port,0,,Len,29
2014-11-14T16:00:35.576,FE,16,AD, 1, 1,23,mavlink_rc_channels_raw_t,time_boot_ms,236979,chan1_raw,1429,chan2_raw,1499,chan3_raw,1515,chan4_raw,1499,chan5_raw,1554,chan6_raw,1498,chan7_raw,967,chan8_raw,2073,port,0,rssi,0,,Len,30
2014-11-14T16:00:35.592,FE,19,AE, 1, 1,16,mavlink_param_value_t,param_value,0,param_count,247,param_index,56,param_id,RC6_FUNCTION,param_type,2,,Len,33
2014-11-14T16:00:35.618,FE,19,AF, 1, 1,16,mavlink_param_value_t,param_value,966,param_count,247,param_index,57,param_id,RC7_MIN,param_type,4,,Len,33
2014-11-14T16:00:35.619,FE,19,B0, 1, 1,16,mavlink_param_value_t,param_value,967,param_count,247,param_index,58,param_id,RC7_TRIM,param_type,4,,Len,33
2014-11-14T16:00:35.649,FE,1C,B1, 1, 1,A3,mavlink_ahrs_t,omegaIx,-0.00167184,omegaIy,0.001002299,omegaIz,-0.0003685705,accel_weight,0,renorm_val,0,error_rp,0.0003517494,error_yaw,0.001703041,,Len,36
2014-11-14T16:00:35.649,FE, 3,B2, 1, 1,A5,mavlink_hwstatus_t,Vcc,4897,I2Cerr,0,,Len,11
2014-11-14T16:00:35.649,FE, C,B3, 1, 1, 2,mavlink_system_time_t,time_unix_usec,0,time_boot_ms,237081,,Len,20
2014-11-14T16:00:35.650,FE, 9,B4, 1, 1, 0,mavlink_heartbeat_t,custom_mode,0,type,10,autopilot,3,base_mode,193,system_status,4,mavlink_version,3,,Len,17
2014-11-14T16:00:35.650,FE,19,B5, 1, 1,16,mavlink_param_value_t,param_value,2073,param_count,247,param_index,59,param_id,RC7_MAX,param_type,4,,Len,33
2014-11-14T16:00:35.665,FE,19,B6, 1, 1,16,mavlink_param_value_t,param_value,1,param_count,247,param_index,60,param_id,RC7_REV,param_type,2,,Len,33
2014-11-14T16:00:35.807,FE,19,B7, 1, 1,16,mavlink_param_value_t,param_value,0,param_count,247,param_index,61,param_id,RC7_DZ,param_type,4,,Len,33
2014-11-14T16:00:35.809,FE,19,B8, 1, 1,16,mavlink_param_value_t,param_value,0,param_count,247,param_index,62,param_id,RC7_FUNCTION,param_type,2,,Len,33
2014-11-14T16:00:35.811,FE,19,B9, 1, 1,16,mavlink_param_value_t,param_value,966,param_count,247,param_index,63,param_id,RC8_MIN,param_type,4,,Len,33
2014-11-14T16:00:35.823,FE,19,BA, 1, 1,16,mavlink_param_value_t,param_value,2073,param_count,247,param_index,64,param_id,RC8_TRIM,param_type,4,,Len,33
2014-11-14T16:00:35.839,FE,1C,BB, 1, 1,1E,mavlink_attitude_t,time_boot_ms,237238,roll,-0.02981836,pitch,-0.01937863,yaw,1.048503,rollspeed,1.649954E-06,pitchspeed,0.0002041481,yawspeed,-3.334373E-05,,Len,36
2014-11-14T16:00:35.839,FE,14,BC, 1, 1,4A,mavlink_vfr_hud_t,airspeed,0,groundspeed,0,alt,1.02,climb,0,heading,60,throttle,16,,Len,28
2014-11-14T16:00:35.870,FE,19,BD, 1, 1,16,mavlink_param_value_t,param_value,2073,param_count,247,param_index,65,param_id,RC8_MAX,param_type,4,,Len,33
2014-11-14T16:00:35.872,FE,19,BE, 1, 1,16,mavlink_param_value_t,param_value,1,param_count,247,param_index,66,param_id,RC8_REV,param_type,2,,Len,33
2014-11-14T16:00:35.873,FE,19,BF, 1, 1,16,mavlink_param_value_t,param_value,0,param_count,247,param_index,67,param_id,RC8_DZ,param_type,4,,Len,33
2014-11-14T16:00:35.886,FE,19,C0, 1, 1,16,mavlink_param_value_t,param_value,0,param_count,247,param_index,68,param_id,RC8_FUNCTION,param_type,2,,Len,33
2014-11-14T16:00:35.901,FE,19,C1, 1, 1,16,mavlink_param_value_t,param_value,1100,param_count,247,param_index,69,param_id,RC10_MIN,param_type,4,,Len,33
2014-11-14T16:00:35.917,FE,19,C2, 1, 1,16,mavlink_param_value_t,param_value,1500,param_count,247,param_index,70,param_id,RC10_TRIM,param_type,4,,Len,33
2014-11-14T16:00:35.949,FE,19,C3, 1, 1,16,mavlink_param_value_t,param_value,1900,param_count,247,param_index,71,param_id,RC10_MAX,param_type,4,,Len,33
2014-11-14T16:00:35.975,FE,19,C4, 1, 1,16,mavlink_param_value_t,param_value,1,param_count,247,param_index,72,param_id,RC10_REV,param_type,2,,Len,33
2014-11-14T16:00:35.976,FE,19,C5, 1, 1,16,mavlink_param_value_t,param_value,0,param_count,247,param_index,73,param_id,RC10_DZ,param_type,4,,Len,33
2014-11-14T16:00:35.979,FE,1C,C6, 1, 1,21,mavlink_global_position_int_t,time_boot_ms,237581,lat,0,lon,0,alt,-17000,relative_alt,1080,vx,0,vy,0,vz,0,hdg,6008,,Len,36
2014-11-14T16:00:36.007,FE,1C,C7, 1, 1,1E,mavlink_attitude_t,time_boot_ms,237657,roll,-0.0298126,pitch,-0.01938717,yaw,1.048624,rollspeed,1.649954E-06,pitchspeed,-0.0005940177,yawspeed,-3.334373E-05,,Len,36
2014-11-14T16:00:36.073,FE, 9,11,FF,BE, 0,mavlink_heartbeat_t,custom_mode,0,type,6,autopilot,8,base_mode,0,system_status,0,mavlink_version,3,,Len,17
2014-11-14T16:00:36.103,FE, 9,C2,33,44,A6,mavlink_radio_t,rxerrors,0,fixed,2,rssi,167,remrssi,179,txbuf,100,noise,47,remnoise,20,,Len,17
2014-11-14T16:00:36.119,FE, 9,C2,33,44,6D,mavlink_radio_status_t,rxerrors,0,fixed,2,rssi,167,remrssi,179,txbuf,100,noise,47,remnoise,20,,Len,17
2014-11-14T16:00:36.182,FE,14,C8, 1, 1,4A,mavlink_vfr_hud_t,airspeed,0,groundspeed,0,alt,1.04,climb,0,heading,60,throttle,16,,Len,28
2014-11-14T16:00:36.182,FE,19,C9, 1, 1,16,mavlink_param_value_t,param_value,0,param_count,247,param_index,74,param_id,RC10_FUNCTION,param_type,2,,Len,33
2014-11-14T16:00:36.184,FE,19,CA, 1, 1,16,mavlink_param_value_t,param_value,1100,param_count,247,param_index,75,param_id,RC11_MIN,param_type,4,,Len,33
2014-11-14T16:00:36.213,FE,19,CB, 1, 1,16,mavlink_param_value_t,param_value,1500,param_count,247,param_index,76,param_id,RC11_TRIM,param_type,4,,Len,33
2014-11-14T16:00:36.215,FE,19,CC, 1, 1,16,mavlink_param_value_t,param_value,1900,param_count,247,param_index,77,param_id,RC11_MAX,param_type,4,,Len,33
2014-11-14T16:00:36.216,FE,19,CD, 1, 1,16,mavlink_param_value_t,param_value,1,param_count,247,param_index,78,param_id,RC11_REV,param_type,2,,Len,33
2014-11-14T16:00:36.229,FE,19,CE, 1, 1,16,mavlink_param_value_t,param_value,0,param_count,247,param_index,79,param_id,RC11_DZ,param_type,4,,Len,33
2014-11-14T16:00:36.357,FE,19,CF, 1, 1,16,mavlink_param_value_t,param_value,0,param_count,247,param_index,80,param_id,RC11_FUNCTION,param_type,2,,Len,33
2014-11-14T16:00:36.375,FE,19,D0, 1, 1,16,mavlink_param_value_t,param_value,0,param_count,247,param_index,81,param_id,THR_MIN,param_type,2,,Len,33
2014-11-14T16:00:36.497,FE,19,D1, 1, 1,16,mavlink_param_value_t,param_value,100,param_count,247,param_index,82,param_id,THR_MAX,param_type,2,,Len,33
2014-11-14T16:00:36.499,FE,19,D2, 1, 1,16,mavlink_param_value_t,param_value,20,param_count,247,param_index,83,param_id,CRUISE_THROTTLE,param_type,2,,Len,33
2014-11-14T16:00:36.500,FE,19,D3, 1, 1,16,mavlink_param_value_t,param_value,100,param_count,247,param_index,84,param_id,THR_SLEWRATE,param_type,2,,Len,33
2014-11-14T16:00:36.550,FE,19,D4, 1, 1,16,mavlink_param_value_t,param_value,0,param_count,247,param_index,85,param_id,SKID_STEER_OUT,param_type,2,,Len,33
2014-11-14T16:00:36.552,FE,1C,D5, 1, 1,1E,mavlink_attitude_t,time_boot_ms,238082,roll,-0.02982223,pitch,-0.01945368,yaw,1.04854,rollspeed,1.649954E-06,pitchspeed,0.0002041481,yawspeed,0.0007648211,,Len,36
2014-11-14T16:00:36.552,FE, 9,D6, 1, 1, 0,mavlink_heartbeat_t,custom_mode,0,type,10,autopilot,3,base_mode,193,system_status,4,mavlink_version,3,,Len,17
2014-11-14T16:00:36.553,FE,14,D7, 1, 1,4A,mavlink_vfr_hud_t,airspeed,0,groundspeed,0,alt,0.93,climb,0,heading,60,throttle,16,,Len,28
2014-11-14T16:00:36.553,FE,19,D8, 1, 1,16,mavlink_param_value_t,param_value,0,param_count,247,param_index,86,param_id,SKID_STEER_IN,param_type,2,,Len,33
2014-11-14T16:00:36.555,FE,19,D9, 1, 1,16,mavlink_param_value_t,param_value,2,param_count,247,param_index,87,param_id,FS_ACTION,param_type,2,,Len,33
2014-11-14T16:00:36.581,FE,19,DA, 1, 1,16,mavlink_param_value_t,param_value,5,param_count,247,param_index,88,param_id,FS_TIMEOUT,param_type,9,,Len,33
2014-11-14T16:00:36.710,FE,19,DB, 1, 1,16,mavlink_param_value_t,param_value,1,param_count,247,param_index,89,param_id,FS_THR_ENABLE,param_type,2,,Len,33
2014-11-14T16:00:36.726,FE,19,DC, 1, 1,16,mavlink_param_value_t,param_value,910,param_count,247,param_index,90,param_id,FS_THR_VALUE,param_type,4,,Len,33
2014-11-14T16:00:36.728,FE,19,DD, 1, 1,16,mavlink_param_value_t,param_value,0,param_count,247,param_index,91,param_id,FS_GCS_ENABLE,param_type,2,,Len,33
2014-11-14T16:00:36.822,FE,19,DE, 1, 1,16,mavlink_param_value_t,param_value,100,param_count,247,param_index,92,param_id,RNGFND_TRIGGR_CM,param_type,4,,Len,33
2014-11-14T16:00:36.947,FE,19,DF, 1, 1,16,mavlink_param_value_t,param_value,45,param_count,247,param_index,93,param_id,RNGFND_TURN_ANGL,param_type,9,,Len,33
2014-11-14T16:00:36.949,FE,19,E0, 1, 1,16,mavlink_param_value_t,param_value,1,param_count,247,param_index,94,param_id,RNGFND_TURN_TIME,param_type,9,,Len,33
2014-11-14T16:00:37.057,FE,1C,E1, 1, 1,1E,mavlink_attitude_t,time_boot_ms,238501,roll,-0.02980428,pitch,-0.01943261,yaw,1.048609,rollspeed,1.649954E-06,pitchspeed,0.0002041481,yawspeed,-3.334373E-05,,Len,36
2014-11-14T16:00:37.058,FE,14,E2, 1, 1,4A,mavlink_vfr_hud_t,airspeed,0,groundspeed,0,alt,1.07,climb,0,heading,60,throttle,16,,Len,28
2014-11-14T16:00:37.083,FE, 9,12,FF,BE, 0,mavlink_heartbeat_t,custom_mode,0,type,6,autopilot,8,base_mode,0,system_status,0,mavlink_version,3,,Len,17
2014-11-14T16:00:37.169,FE,19,E3, 1, 1,16,mavlink_param_value_t,param_value,2,param_count,247,param_index,95,param_id,RNGFND_DEBOUNCE,param_type,2,,Len,33
2014-11-14T16:00:37.186,FE,19,E4, 1, 1,16,mavlink_param_value_t,param_value,7,param_count,247,param_index,96,param_id,LEARN_CH,param_type,2,,Len,33
2014-11-14T16:00:37.188,FE,19,E5, 1, 1,16,mavlink_param_value_t,param_value,8,param_count,247,param_index,97,param_id,MODE_CH,param_type,2,,Len,33
2014-11-14T16:00:37.201,FE,19,E6, 1, 1,16,mavlink_param_value_t,param_value,10,param_count,247,param_index,98,param_id,MODE1,param_type,2,,Len,33
2014-11-14T16:00:37.217,FE,19,E7, 1, 1,16,mavlink_param_value_t,param_value,2,param_count,247,param_index,99,param_id,MODE2,param_type,2,,Len,33
2014-11-14T16:00:37.218,FE,19,E8, 1, 1,16,mavlink_param_value_t,param_value,2,param_count,247,param_index,100,param_id,MODE3,param_type,2,,Len,33
2014-11-14T16:00:37.233,FE,1A,E9, 1, 1,1B,mavlink_raw_imu_t,time_usec,238759762,xacc,-18,yacc,29,zacc,-970,xgyro,1,ygyro,0,zgyro,0,xmag,84,ymag,-147,zmag,147,,Len,34
2014-11-14T16:00:37.249,FE,19,EA, 1, 1,16,mavlink_param_value_t,param_value,2,param_count,247,param_index,101,param_id,MODE4,param_type,2,,Len,33
2014-11-14T16:00:37.252,FE,19,EB, 1, 1,16,mavlink_param_value_t,param_value,2,param_count,247,param_index,102,param_id,MODE5,param_type,2,,Len,33
2014-11-14T16:00:37.265,FE, 9,C3,33,44,A6,mavlink_radio_t,rxerrors,0,fixed,2,rssi,164,remrssi,174,txbuf,100,noise,41,remnoise,20,,Len,17
2014-11-14T16:00:37.265,FE, 9,C3,33,44,6D,mavlink_radio_status_t,rxerrors,0,fixed,2,rssi,164,remrssi,174,txbuf,100,noise,41,remnoise,20,,Len,17
2014-11-14T16:00:37.313,FE,19,EC, 1, 1,16,mavlink_param_value_t,param_value,0,param_count,247,param_index,103,param_id,MODE6,param_type,2,,Len,33
2014-11-14T16:00:37.329,FE,1F,ED, 1, 1, 1,mavlink_sys_status_t,onboard_control_sensors_present,2153511,onboard_control_sensors_enabled,2097191,onboard_control_sensors_health,2153479,load,382,voltage_battery,0,current_battery,-1,drop_rate_comm,0,errors_comm,0,errors_count1,0,errors_count2,0,errors_count3,0,errors_count4,0,battery_remaining,255,,Len,39
2014-11-14T16:00:37.330,FE, 4,EE, 1, 1,98,mavlink_meminfo_t,brkval,6112,freemem,2004,,Len,12
2014-11-14T16:00:37.330,FE, 2,EF, 1, 1,2A,mavlink_mission_current_t,seq,0,,Len,10
2014-11-14T16:00:37.371,FE,1E,F0, 1, 1,18,mavlink_gps_raw_int_t,time_usec,0,lat,0,lon,0,alt,-17000,eph,9999,epv,65535,vel,0,cog,0,fix_type,1,satellites_visible,0,,Len,38
2014-11-14T16:00:37.371,FE,19,F1, 1, 1,16,mavlink_param_value_t,param_value,4,param_count,247,param_index,104,param_id,WP_RADIUS,param_type,9,,Len,33
2014-11-14T16:00:37.373,FE,19,F2, 1, 1,16,mavlink_param_value_t,param_value,1,param_count,247,param_index,105,param_id,TURN_MAX_G,param_type,9,,Len,33
2014-11-14T16:00:37.415,FE,19,F3, 1, 1,16,mavlink_param_value_t,param_value,0.75,param_count,247,param_index,106,param_id,STEER2SRV_TCONST,param_type,9,,Len,33
2014-11-14T16:00:37.416,FE,15,F4, 1, 1,24,mavlink_servo_output_raw_t,time_usec,238903047,servo1_raw,1429,servo2_raw,1499,servo3_raw,1516,servo4_raw,1499,servo5_raw,1553,servo6_raw,1499,servo7_raw,967,servo8_raw,2073,port,0,,Len,29
2014-11-14T16:00:37.417,FE,16,F5, 1, 1,23,mavlink_rc_channels_raw_t,time_boot_ms,238920,chan1_raw,1429,chan2_raw,1498,chan3_raw,1516,chan4_raw,1499,chan5_raw,1553,chan6_raw,1499,chan7_raw,967,chan8_raw,2072,port,0,rssi,0,,Len,30
2014-11-14T16:00:37.431,FE,1C,F6, 1, 1,21,mavlink_global_position_int_t,time_boot_ms,238920,lat,0,lon,0,alt,-17000,relative_alt,1030,vx,0,vy,0,vz,0,hdg,6008,,Len,36
2014-11-14T16:00:37.447,FE,1C,F7, 1, 1,1E,mavlink_attitude_t,time_boot_ms,238921,roll,-0.02978367,pitch,-0.01939802,yaw,1.048679,rollspeed,1.649954E-06,pitchspeed,0.0002041481,yawspeed,-3.334373E-05,,Len,36
2014-11-14T16:00:37.447,FE,14,F8, 1, 1,4A,mavlink_vfr_hud_t,airspeed,0,groundspeed,0,alt,1.03,climb,0,heading,60,throttle,16,,Len,28
2014-11-14T16:00:37.489,FE,19,F9, 1, 1,16,mavlink_param_value_t,param_value,0.5,param_count,247,param_index,107,param_id,STEER2SRV_P,param_type,9,,Len,33
2014-11-14T16:00:37.490,FE,19,FA, 1, 1,16,mavlink_param_value_t,param_value,0.2,param_count,247,param_index,108,param_id,STEER2SRV_I,param_type,9,,Len,33
2014-11-14T16:00:37.491,FE,19,FB, 1, 1,16,mavlink_param_value_t,param_value,0.005,param_count,247,param_index,109,param_id,STEER2SRV_D,param_type,9,,Len,33
2014-11-14T16:00:37.492,FE, 9,FC, 1, 1, 0,mavlink_heartbeat_t,custom_mode,0,type,10,autopilot,3,base_mode,193,system_status,4,mavlink_version,3,,Len,17
2014-11-14T16:00:37.521,FE,1C,FD, 1, 1,A3,mavlink_ahrs_t,omegaIx,-0.00167184,omegaIy,0.001002299,omegaIz,-0.0003685705,accel_weight,0,renorm_val,0,error_rp,0.0003883906,error_yaw,0.001782109,,Len,36
2014-11-14T16:00:37.521,FE, 3,FE, 1, 1,A5,mavlink_hwstatus_t,Vcc,4876,I2Cerr,0,,Len,11
2014-11-14T16:00:37.521,FE, C,FF, 1, 1, 2,mavlink_system_time_t,time_unix_usec,0,time_boot_ms,239102,,Len,20
2014-11-14T16:00:37.626,FE,19, 0, 1, 1,16,mavlink_param_value_t,param_value,1500,param_count,247,param_index,110,param_id,STEER2SRV_IMAX,param_type,4,,Len,33
2014-11-14T16:00:37.652,FE,19, 1, 1, 1,16,mavlink_param_value_t,param_value,1,param_count,247,param_index,111,param_id,STEER2SRV_MINSPD,param_type,9,,Len,33
2014-11-14T16:00:37.653,FE,19, 2, 1, 1,16,mavlink_param_value_t,param_value,0.7,param_count,247,param_index,112,param_id,SPEED2THR_P,param_type,9,,Len,33
2014-11-14T16:00:37.664,FE,19, 3, 1, 1,16,mavlink_param_value_t,param_value,0.2,param_count,247,param_index,113,param_id,SPEED2THR_I,param_type,9,,Len,33
2014-11-14T16:00:37.679,FE,19, 4, 1, 1,16,mavlink_param_value_t,param_value,0.2,param_count,247,param_index,114,param_id,SPEED2THR_D,param_type,9,,Len,33
2014-11-14T16:00:37.680,FE,19, 5, 1, 1,16,mavlink_param_value_t,param_value,4000,param_count,247,param_index,115,param_id,SPEED2THR_IMAX,param_type,4,,Len,33
2014-11-14T16:00:37.743,FE,1C, 6, 1, 1,1E,mavlink_attitude_t,time_boot_ms,239340,roll,-0.02974905,pitch,-0.01946198,yaw,1.048776,rollspeed,1.649954E-06,pitchspeed,-0.0005940177,yawspeed,-3.334373E-05,,Len,36
2014-11-14T16:00:37.855,FE,14, 7, 1, 1,4A,mavlink_vfr_hud_t,airspeed,0,groundspeed,0,alt,1.13,climb,0,heading,60,throttle,16,,Len,28
2014-11-14T16:00:37.871,FE,19, 8, 1, 1,16,mavlink_param_value_t,param_value,-74.41189,param_count,247,param_index,116,param_id,COMPASS_OFS_X,param_type,9,,Len,33
2014-11-14T16:00:37.872,FE,19, 9, 1, 1,16,mavlink_param_value_t,param_value,-48.70451,param_count,247,param_index,117,param_id,COMPASS_OFS_Y,param_type,9,,Len,33
2014-11-14T16:00:37.913,FE,19, A, 1, 1,16,mavlink_param_value_t,param_value,-6.557904,param_count,247,param_index,118,param_id,COMPASS_OFS_Z,param_type,9,,Len,33
2014-11-14T16:00:37.914,FE,19, B, 1, 1,16,mavlink_param_value_t,param_value,0,param_count,247,param_index,119,param_id,COMPASS_DEC,param_type,9,,Len,33
2014-11-14T16:00:37.916,FE,19, C, 1, 1,16,mavlink_param_value_t,param_value,1,param_count,247,param_index,120,param_id,COMPASS_LEARN,param_type,2,,Len,33
2014-11-14T16:00:37.917,FE,19, D, 1, 1,16,mavlink_param_value_t,param_value,1,param_count,247,param_index,121,param_id,COMPASS_USE,param_type,2,,Len,33
2014-11-14T16:00:38.090,FE,19, E, 1, 1,16,mavlink_param_value_t,param_value,1,param_count,247,param_index,122,param_id,COMPASS_AUTODEC,param_type,2,,Len,33
2014-11-14T16:00:38.093,FE, 9,13,FF,BE, 0,mavlink_heartbeat_t,custom_mode,0,type,6,autopilot,8,base_mode,0,system_status,0,mavlink_version,3,,Len,17
2014-11-14T16:00:38.105,FE,19, F, 1, 1,16,mavlink_param_value_t,param_value,0,param_count,247,param_index,123,param_id,COMPASS_MOTCT,param_type,2,,Len,33
2014-11-14T16:00:38.106,FE,19,10, 1, 1,16,mavlink_param_value_t,param_value,0,param_count,247,param_index,124,param_id,COMPASS_MOT_X,param_type,9,,Len,33
2014-11-14T16:00:38.121,FE,19,11, 1, 1,16,mavlink_param_value_t,param_value,0,param_count,247,param_index,125,param_id,COMPASS_MOT_Y,param_type,9,,Len,33
2014-11-14T16:00:38.149,FE,19,12, 1, 1,16,mavlink_param_value_t,param_value,0,param_count,247,param_index,126,param_id,COMPASS_MOT_Z,param_type,9,,Len,33
2014-11-14T16:00:38.151,FE,19,13, 1, 1,16,mavlink_param_value_t,param_value,8,param_count,247,param_index,127,param_id,COMPASS_ORIENT,param_type,2,,Len,33
2014-11-14T16:00:38.152,FE,1C,14, 1, 1,1E,mavlink_attitude_t,time_boot_ms,239761,roll,-0.0297445,pitch,-0.01950477,yaw,1.048809,rollspeed,1.649954E-06,pitchspeed,-0.0003279612,yawspeed,-3.334373E-05,,Len,36
2014-11-14T16:00:38.152,FE,14,15, 1, 1,4A,mavlink_vfr_hud_t,airspeed,0,groundspeed,0,alt,0.96,climb,0,heading,60,throttle,16,,Len,28
2014-11-14T16:00:38.181,FE, 9,C4,33,44,A6,mavlink_radio_t,rxerrors,0,fixed,2,rssi,165,remrssi,178,txbuf,100,noise,44,remnoise,22,,Len,17
2014-11-14T16:00:38.181,FE, 9,C4,33,44,6D,mavlink_radio_status_t,rxerrors,0,fixed,2,rssi,165,remrssi,178,txbuf,100,noise,44,remnoise,22,,Len,17
2014-11-14T16:00:38.255,FE,19,16, 1, 1,16,mavlink_param_value_t,param_value,0,param_count,247,param_index,128,param_id,COMPASS_EXTERNAL,param_type,2,,Len,33
2014-11-14T16:00:38.256,FE,19,17, 1, 1,16,mavlink_param_value_t,param_value,0,param_count,247,param_index,129,param_id,SCHED_DEBUG,param_type,2,,Len,33
2014-11-14T16:00:38.258,FE,19,18, 1, 1,16,mavlink_param_value_t,param_value,100692.2,param_count,247,param_index,130,param_id,GND_ABS_PRESS,param_type,9,,Len,33
2014-11-14T16:00:38.424,FE,19,19, 1, 1,16,mavlink_param_value_t,param_value,24.2033,param_count,247,param_index,131,param_id,GND_TEMP,param_type,9,,Len,33
2014-11-14T16:00:38.439,FE,19,1A, 1, 1,16,mavlink_param_value_t,param_value,0,param_count,247,param_index,132,param_id,GND_ALT_OFFSET,param_type,2,,Len,33
2014-11-14T16:00:38.561,FE,19,1B, 1, 1,16,mavlink_param_value_t,param_value,13,param_count,247,param_index,133,param_id,RELAY_PIN,param_type,2,,Len,33
2014-11-14T16:00:38.562,FE, 9,1C, 1, 1, 0,mavlink_heartbeat_t,custom_mode,0,type,10,autopilot,3,base_mode,193,system_status,4,mavlink_version,3,,Len,17
2014-11-14T16:00:38.563,FE,19,1D, 1, 1,16,mavlink_param_value_t,param_value,-1,param_count,247,param_index,134,param_id,RELAY_PIN2,param_type,2,,Len,33
2014-11-14T16:00:38.657,FE,19,1E, 1, 1,16,mavlink_param_value_t,param_value,-1,param_count,247,param_index,135,param_id,RELAY_PIN3,param_type,2,,Len,33
2014-11-14T16:00:38.673,FE,19,1F, 1, 1,16,mavlink_param_value_t,param_value,-1,param_count,247,param_index,136,param_id,RELAY_PIN4,param_type,2,,Len,33
2014-11-14T16:00:38.795,FE,1C,20, 1, 1,1E,mavlink_attitude_t,time_boot_ms,240183,roll,-0.02974354,pitch,-0.01955387,yaw,1.048831,rollspeed,1.649954E-06,pitchspeed,-0.0008600705,yawspeed,-3.334373E-05,,Len,36
2014-11-14T16:00:38.795,FE,14,21, 1, 1,4A,mavlink_vfr_hud_t,airspeed,0,groundspeed,0,alt,0.93,climb,0,heading,60,throttle,16,,Len,28
2014-11-14T16:00:38.795,FE,19,22, 1, 1,16,mavlink_param_value_t,param_value,0,param_count,247,param_index,137,param_id,RELAY_DEFAULT,param_type,2,,Len,33
2014-11-14T16:00:38.812,FE,19,23, 1, 1,16,mavlink_param_value_t,param_value,1,param_count,247,param_index,138,param_id,RCMAP_ROLL,param_type,2,,Len,33
2014-11-14T16:00:38.828,FE,19,24, 1, 1,16,mavlink_param_value_t,param_value,2,param_count,247,param_index,139,param_id,RCMAP_PITCH,param_type,2,,Len,33
2014-11-14T16:00:38.829,FE,1C,25, 1, 1,21,mavlink_global_position_int_t,time_boot_ms,240262,lat,0,lon,0,alt,-17000,relative_alt,930,vx,0,vy,0,vz,0,hdg,6009,,Len,36
2014-11-14T16:00:38.859,FE,19,26, 1, 1,16,mavlink_param_value_t,param_value,3,param_count,247,param_index,140,param_id,RCMAP_THROTTLE,param_type,2,,Len,33
2014-11-14T16:00:38.863,FE,19,27, 1, 1,16,mavlink_param_value_t,param_value,4,param_count,247,param_index,141,param_id,RCMAP_YAW,param_type,2,,Len,33
2014-11-14T16:00:38.865,FE,19,28, 1, 1,16,mavlink_param_value_t,param_value,2,param_count,247,param_index,142,param_id,SR0_RAW_SENS,param_type,4,,Len,33
2014-11-14T16:00:38.891,FE,19,29, 1, 1,16,mavlink_param_value_t,param_value,2,param_count,247,param_index,143,param_id,SR0_EXT_STAT,param_type,4,,Len,33
2014-11-14T16:00:39.002,FE, 9,14,FF,BE, 0,mavlink_heartbeat_t,custom_mode,0,type,6,autopilot,8,base_mode,0,system_status,0,mavlink_version,3,,Len,17
2014-11-14T16:00:39.003,FE,19,2A, 1, 1,16,mavlink_param_value_t,param_value,2,param_count,247,param_index,144,param_id,SR0_RC_CHAN,param_type,4,,Len,33
2014-11-14T16:00:39.029,FE,19,2B, 1, 1,16,mavlink_param_value_t,param_value,1,param_count,247,param_index,145,param_id,SR0_RAW_CTRL,param_type,4,,Len,33
2014-11-14T16:00:39.031,FE,19,2C, 1, 1,16,mavlink_param_value_t,param_value,3,param_count,247,param_index,146,param_id,SR0_POSITION,param_type,4,,Len,33
2014-11-14T16:00:39.057,FE,19,2D, 1, 1,16,mavlink_param_value_t,param_value,10,param_count,247,param_index,147,param_id,SR0_EXTRA1,param_type,4,,Len,33
2014-11-14T16:00:39.059,FE,19,2E, 1, 1,16,mavlink_param_value_t,param_value,10,param_count,247,param_index,148,param_id,SR0_EXTRA2,param_type,4,,Len,33
2014-11-14T16:00:39.060,FE,1C,2F, 1, 1,1E,mavlink_attitude_t,time_boot_ms,240603,roll,-0.02972426,pitch,-0.01960855,yaw,1.048848,rollspeed,1.649954E-06,pitchspeed,-0.0003279612,yawspeed,-3.334373E-05,,Len,36
2014-11-14T16:00:39.085,FE,14,30, 1, 1,4A,mavlink_vfr_hud_t,airspeed,0,groundspeed,0,alt,1.07,climb,0,heading,60,throttle,16,,Len,28
2014-11-14T16:00:39.085,FE,19,31, 1, 1,16,mavlink_param_value_t,param_value,2,param_count,247,param_index,149,param_id,SR0_EXTRA3,param_type,4,,Len,33
2014-11-14T16:00:39.088,FE,19,32, 1, 1,16,mavlink_param_value_t,param_value,10,param_count,247,param_index,150,param_id,SR0_PARAMS,param_type,4,,Len,33
2014-11-14T16:00:39.102,FE, 9,C5,33,44,6D,mavlink_radio_status_t,rxerrors,0,fixed,2,rssi,168,remrssi,173,txbuf,100,noise,44,remnoise,23,,Len,17
2014-11-14T16:00:39.149,FE,1A,34, 1, 1,1B,mavlink_raw_imu_t,time_usec,240785388,xacc,-19,yacc,29,zacc,-970,xgyro,1,ygyro,-1,zgyro,0,xmag,86,ymag,-148,zmag,148,,Len,34
2014-11-14T16:00:39.180,FE,19,35, 1, 1,16,mavlink_param_value_t,param_value,1,param_count,247,param_index,152,param_id,SR1_EXT_STAT,param_type,4,,Len,33
2014-11-14T16:00:39.195,FE,19,36, 1, 1,16,mavlink_param_value_t,param_value,1,param_count,247,param_index,153,param_id,SR1_RC_CHAN,param_type,4,,Len,33
2014-11-14T16:00:39.217,FE,19,37, 1, 1,16,mavlink_param_value_t,param_value,1,param_count,247,param_index,154,param_id,SR1_RAW_CTRL,param_type,4,,Len,33
2014-11-14T16:00:39.356,FE,1F,38, 1, 1, 1,mavlink_sys_status_t,onboard_control_sensors_present,2153511,onboard_control_sensors_enabled,2097191,onboard_control_sensors_health,2153479,load,388,voltage_battery,0,current_battery,-1,drop_rate_comm,0,errors_comm,0,errors_count1,0,errors_count2,0,errors_count3,0,errors_count4,0,battery_remaining,255,,Len,39
2014-11-14T16:00:39.356,FE, 4,39, 1, 1,98,mavlink_meminfo_t,brkval,6112,freemem,2004,,Len,12
2014-11-14T16:00:39.356,FE, 2,3A, 1, 1,2A,mavlink_mission_current_t,seq,0,,Len,10
2014-11-14T16:00:39.398,FE,1E,3B, 1, 1,18,mavlink_gps_raw_int_t,time_usec,0,lat,0,lon,0,alt,-17000,eph,9999,epv,65535,vel,0,cog,0,fix_type,1,satellites_visible,0,,Len,38
2014-11-14T16:00:39.399,FE,15,3C, 1, 1,24,mavlink_servo_output_raw_t,time_usec,240923015,servo1_raw,1428,servo2_raw,1499,servo3_raw,1516,servo4_raw,1499,servo5_raw,1553,servo6_raw,1499,servo7_raw,967,servo8_raw,2073,port,0,,Len,29
2014-11-14T16:00:39.399,FE,16,3D, 1, 1,23,mavlink_rc_channels_raw_t,time_boot_ms,240923,chan1_raw,1428,chan2_raw,1499,chan3_raw,1516,chan4_raw,1499,chan5_raw,1553,chan6_raw,1499,chan7_raw,966,chan8_raw,2073,port,0,rssi,0,,Len,30
2014-11-14T16:00:39.414,FE,19,3E, 1, 1,16,mavlink_param_value_t,param_value,1,param_count,247,param_index,155,param_id,SR1_POSITION,param_type,4,,Len,33
2014-11-14T16:00:39.430,FE,19,3F, 1, 1,16,mavlink_param_value_t,param_value,1,param_count,247,param_index,156,param_id,SR1_EXTRA1,param_type,4,,Len,33
2014-11-14T16:00:39.434,FE,19,40, 1, 1,16,mavlink_param_value_t,param_value,1,param_count,247,param_index,157,param_id,SR1_EXTRA2,param_type,4,,Len,33
2014-11-14T16:00:39.462,FE,1C,41, 1, 1,1E,mavlink_attitude_t,time_boot_ms,241023,roll,-0.02977729,pitch,-0.01971566,yaw,1.048827,rollspeed,4.397938E-06,pitchspeed,-0.0003247802,yawspeed,-1.485663E-05,,Len,36
2014-11-14T16:00:39.471,FE,14,42, 1, 1,4A,mavlink_vfr_hud_t,airspeed,0,groundspeed,0,alt,1.05,climb,0,heading,60,throttle,16,,Len,28
2014-11-14T16:00:39.487,FE,19,43, 1, 1,16,mavlink_param_value_t,param_value,1,param_count,247,param_index,158,param_id,SR1_EXTRA3,param_type,4,,Len,33
2014-11-14T16:00:39.513,FE,19,44, 1, 1,16,mavlink_param_value_t,param_value,10,param_count,247,param_index,159,param_id,SR1_PARAMS,param_type,4,,Len,33
2014-11-14T16:00:39.515,FE,19,45, 1, 1,16,mavlink_param_value_t,param_value,8,param_count,247,param_index,160,param_id,NAVL1_PERIOD,param_type,9,,Len,33
2014-11-14T16:00:39.516,FE, 9,46, 1, 1, 0,mavlink_heartbeat_t,custom_mode,0,type,10,autopilot,3,base_mode,193,system_status,4,mavlink_version,3,,Len,17
2014-11-14T16:00:39.516,FE,1C,47, 1, 1,A3,mavlink_ahrs_t,omegaIx,-0.001669092,omegaIy,0.00100548,omegaIz,-0.0003500834,accel_weight,0,renorm_val,0,error_rp,0.0001054043,error_yaw,0.001998747,,Len,36
2014-11-14T16:00:39.529,FE, 3,48, 1, 1,A5,mavlink_hwstatus_t,Vcc,4897,I2Cerr,0,,Len,11
2014-11-14T16:00:39.529,FE, C,49, 1, 1, 2,mavlink_system_time_t,time_unix_usec,0,time_boot_ms,241124,,Len,20
2014-11-14T16:00:39.529,FE,19,4A, 1, 1,16,mavlink_param_value_t,param_value,0.75,param_count,247,param_index,161,param_id,NAVL1_DAMPING,param_type,9,,Len,33
2014-11-14T16:00:39.591,FE,19,4B, 1, 1,16,mavlink_param_value_t,param_value,0,param_count,247,param_index,162,param_id,RNGFND_TYPE,param_type,2,,Len,33
2014-11-14T16:00:39.593,FE,19,4C, 1, 1,16,mavlink_param_value_t,param_value,-1,param_count,247,param_index,163,param_id,RNGFND_PIN,param_type,2,,Len,33
2014-11-14T16:00:39.713,FE,19,4D, 1, 1,16,mavlink_param_value_t,param_value,3,param_count,247,param_index,164,param_id,RNGFND_SCALING,param_type,9,,Len,33
2014-11-14T16:00:39.714,FE,19,4E, 1, 1,16,mavlink_param_value_t,param_value,0,param_count,247,param_index,165,param_id,RNGFND_OFFSET,param_type,9,,Len,33
2014-11-14T16:00:39.715,FE,19,4F, 1, 1,16,mavlink_param_value_t,param_value,0,param_count,247,param_index,166,param_id,RNGFND_FUNCTION,param_type,2,,Len,33
2014-11-14T16:00:39.809,FE,19,50, 1, 1,16,mavlink_param_value_t,param_value,20,param_count,247,param_index,167,param_id,RNGFND_MIN_CM,param_type,4,,Len,33
2014-11-14T16:00:39.932,FE,19,51, 1, 1,16,mavlink_param_value_t,param_value,700,param_count,247,param_index,168,param_id,RNGFND_MAX_CM,param_type,4,,Len,33
2014-11-14T16:00:39.934,FE,19,52, 1, 1,16,mavlink_param_value_t,param_value,-1,param_count,247,param_index,169,param_id,RNGFND_STOP_PIN,param_type,2,,Len,33
2014-11-14T16:00:40.012,FE, 9,15,FF,BE, 0,mavlink_heartbeat_t,custom_mode,0,type,6,autopilot,8,base_mode,0,system_status,0,mavlink_version,3,,Len,17
2014-11-14T16:00:40.045,FE,1C,53, 1, 1,1E,mavlink_attitude_t,time_boot_ms,241443,roll,-0.02977832,pitch,-0.01966505,yaw,1.048943,rollspeed,4.397938E-06,pitchspeed,-5.872746E-05,yawspeed,-1.485663E-05,,Len,36
2014-11-14T16:00:40.045,FE,14,54, 1, 1,4A,mavlink_vfr_hud_t,airspeed,0,groundspeed,0,alt,0.95,climb,0,heading,60,throttle,16,,Len,28
2014-11-14T16:00:40.156,FE,19,55, 1, 1,16,mavlink_param_value_t,param_value,0,param_count,247,param_index,170,param_id,RNGFND_SETTLE_MS,param_type,4,,Len,33
2014-11-14T16:00:40.172,FE,19,56, 1, 1,16,mavlink_param_value_t,param_value,1,param_count,247,param_index,171,param_id,RNGFND_RMETRIC,param_type,2,,Len,33
2014-11-14T16:00:40.174,FE,19,57, 1, 1,16,mavlink_param_value_t,param_value,0,param_count,247,param_index,172,param_id,RNGFND2_TYPE,param_type,2,,Len,33
2014-11-14T16:00:40.188,FE,1C,58, 1, 1,21,mavlink_global_position_int_t,time_boot_ms,241604,lat,0,lon,0,alt,-17000,relative_alt,980,vx,0,vy,0,vz,0,hdg,6010,,Len,36
2014-11-14T16:00:40.204,FE,19,59, 1, 1,16,mavlink_param_value_t,param_value,-1,param_count,247,param_index,173,param_id,RNGFND2_PIN,param_type,2,,Len,33
2014-11-14T16:00:40.206,FE,19,5A, 1, 1,16,mavlink_param_value_t,param_value,3,param_count,247,param_index,174,param_id,RNGFND2_SCALING,param_type,9,,Len,33
2014-11-14T16:00:40.220,FE,19,5B, 1, 1,16,mavlink_param_value_t,param_value,0,param_count,247,param_index,175,param_id,RNGFND2_OFFSET,param_type,9,,Len,33
2014-11-14T16:00:40.251,FE,19,5C, 1, 1,16,mavlink_param_value_t,param_value,0,param_count,247,param_index,176,param_id,RNGFND2_FUNCTION,param_type,2,,Len,33
2014-11-14T16:00:40.253,FE,19,5D, 1, 1,16,mavlink_param_value_t,param_value,20,param_count,247,param_index,177,param_id,RNGFND2_MIN_CM,param_type,4,,Len,33
2014-11-14T16:00:40.255,FE, 9,C6,33,44,A6,mavlink_radio_t,rxerrors,0,fixed,2,rssi,169,remrssi,172,txbuf,100,noise,41,remnoise,24,,Len,17
2014-11-14T16:00:40.255,FE, 9,C6,33,44,6D,mavlink_radio_status_t,rxerrors,0,fixed,2,rssi,169,remrssi,172,txbuf,100,noise,41,remnoise,24,,Len,17
2014-11-14T16:00:40.299,FE,19,5E, 1, 1,16,mavlink_param_value_t,param_value,700,param_count,247,param_index,178,param_id,RNGFND2_MAX_CM,param_type,4,,Len,33
