2014-11-13T11:38:33.214,FE, 9,3A,FF,BE, 0,mavlink_heartbeat_t,custom_mode,0,type,6,autopilot,8,base_mode,0,system_status,0,mavlink_version,3,,Len,17
2014-11-13T11:38:33.221,FE,14,CE, 1, 1,4A,mavlink_vfr_hud_t,airspeed,0,groundspeed,0,alt,0.78,climb,0,heading,56,throttle,16,,Len,28
2014-11-13T11:38:33.222,FE,1A,CF, 1, 1,1B,mavlink_raw_imu_t,time_usec,33235458,xacc,72,yacc,98,zacc,-961,xgyro,0,ygyro,9,zgyro,-9,xmag,85,ymag,-160,zmag,116,,Len,34
2014-11-13T11:38:33.222,FE,1F,D0, 1, 1, 1,mavlink_sys_status_t,onboard_control_sensors_present,2153511,onboard_control_sensors_enabled,2097191,onboard_control_sensors_health,2153479,load,374,voltage_battery,0,current_battery,-1,drop_rate_comm,0,errors_comm,0,errors_count1,0,errors_count2,0,errors_count3,0,errors_count4,0,battery_remaining,255,,Len,39
2014-11-13T11:38:33.222,FE, 4,D1, 1, 1,98,mavlink_meminfo_t,brkval,6112,freemem,2048,,Len,12
2014-11-13T11:38:33.223,FE, 2,D2, 1, 1,2A,mavlink_mission_current_t,seq,0,,Len,10
2014-11-13T11:38:33.223,FE,1E,D3, 1, 1,18,mavlink_gps_raw_int_t,time_usec,0,lat,0,lon,0,alt,-17000,eph,9999,epv,65535,vel,0,cog,0,fix_type,1,satellites_visible,0,,Len,38
2014-11-13T11:38:33.223,FE,1C,D4, 1, 1,1E,mavlink_attitude_t,time_boot_ms,33278,roll,-0.1008729,pitch,0.08452828,yaw,0.9900907,rollspeed,-0.0001273802,pitchspeed,0.009535073,yawspeed,-0.005021925,,Len,36
2014-11-13T11:38:33.223,FE,14,D5, 1, 1,4A,mavlink_vfr_hud_t,airspeed,0,groundspeed,0,alt,0.87,climb,0,heading,56,throttle,16,,Len,28
2014-11-13T11:38:33.224,FE,1C,D6, 1, 1,1E,mavlink_attitude_t,time_boot_ms,33396,roll,-0.1010075,pitch,0.0850823,yaw,0.9903913,rollspeed,-0.004118204,pitchspeed,0.008736911,yawspeed,-0.000232938,,Len,36
2014-11-13T11:38:33.224,FE,1C,D7, 1, 1,21,mavlink_global_position_int_t,time_boot_ms,33437,lat,0,lon,0,alt,-17000,relative_alt,760,vx,0,vy,0,vz,0,hdg,5673,,Len,36
2014-11-13T11:38:33.224,FE,14,D8, 1, 1,4A,mavlink_vfr_hud_t,airspeed,0,groundspeed,0,alt,0.76,climb,0,heading,56,throttle,16,,Len,28
2014-11-13T11:38:33.224,FE,1C,D9, 1, 1,1E,mavlink_attitude_t,time_boot_ms,33515,roll,-0.1011009,pitch,0.08575568,yaw,0.9903051,rollspeed,0.001735004,pitchspeed,0.002883702,yawspeed,-0.0007650473,,Len,36
2014-11-13T11:38:33.224,FE,15,DA, 1, 1,24,mavlink_servo_output_raw_t,time_usec,33556037,servo1_raw,1422,servo2_raw,1499,servo3_raw,1517,servo4_raw,1499,servo5_raw,1553,servo6_raw,1499,servo7_raw,967,servo8_raw,2073,port,0,,Len,29
2014-11-13T11:38:33.225,FE,16,DB, 1, 1,23,mavlink_rc_channels_raw_t,time_boot_ms,33555,chan1_raw,1422,chan2_raw,1498,chan3_raw,1517,chan4_raw,1499,chan5_raw,1553,chan6_raw,1499,chan7_raw,967,chan8_raw,2073,port,0,rssi,0,,Len,30
2014-11-13T11:38:33.225,FE,14,DC, 1, 1,4A,mavlink_vfr_hud_t,airspeed,0,groundspeed,0,alt,0.73,climb,0,heading,56,throttle,16,,Len,28
2014-11-13T11:38:33.225,FE,1C,DD, 1, 1,1E,mavlink_attitude_t,time_boot_ms,33635,roll,-0.1010867,pitch,0.08594982,yaw,0.9903296,rollspeed,0.000404729,pitchspeed,-0.0003089538,yawspeed,0.0005652269,,Len,36
2014-11-13T11:38:33.225,FE,1C,DE, 1, 1,A3,mavlink_ahrs_t,omegaIx,-0.002516554,omegaIy,0.001364525,omegaIz,-0.002946697,accel_weight,0,renorm_val,0,error_rp,0.004076085,error_yaw,0.00511245,,Len,36
2014-11-13T11:38:33.226,FE, 3,DF, 1, 1,A5,mavlink_hwstatus_t,Vcc,4897,I2Cerr,0,,Len,11
2014-11-13T11:38:33.226,FE, C,E0, 1, 1, 2,mavlink_system_time_t,time_unix_usec,0,time_boot_ms,33636,,Len,20
2014-11-13T11:38:33.226,FE,14,E1, 1, 1,4A,mavlink_vfr_hud_t,airspeed,0,groundspeed,0,alt,0.64,climb,0,heading,56,throttle,16,,Len,28
2014-11-13T11:38:33.226,FE,1A,E2, 1, 1,1B,mavlink_raw_imu_t,time_usec,33756283,xacc,58,yacc,108,zacc,-960,xgyro,6,ygyro,-7,zgyro,-7,xmag,85,ymag,-160,zmag,115,,Len,34
2014-11-13T11:38:33.227,FE,1F,E3, 1, 1, 1,mavlink_sys_status_t,onboard_control_sensors_present,2153511,onboard_control_sensors_enabled,2097191,onboard_control_sensors_health,2153479,load,376,voltage_battery,0,current_battery,-1,drop_rate_comm,0,errors_comm,0,errors_count1,0,errors_count2,0,errors_count3,0,errors_count4,0,battery_remaining,255,,Len,39
2014-11-13T11:38:33.227,FE, 4,E4, 1, 1,98,mavlink_meminfo_t,brkval,6112,freemem,2048,,Len,12
2014-11-13T11:38:33.227,FE, 2,E5, 1, 1,2A,mavlink_mission_current_t,seq,0,,Len,10
2014-11-13T11:38:33.227,FE,1E,E6, 1, 1,18,mavlink_gps_raw_int_t,time_usec,0,lat,0,lon,0,alt,-17000,eph,9999,epv,65535,vel,0,cog,0,fix_type,1,satellites_visible,0,,Len,38
2014-11-13T11:38:33.228,FE,1C,E7, 1, 1,1E,mavlink_attitude_t,time_boot_ms,33778,roll,-0.1005984,pitch,0.08417626,yaw,0.988931,rollspeed,0.004661608,pitchspeed,-0.001905285,yawspeed,-0.006618255,,Len,36
2014-11-13T11:38:33.228,FE, 9,E8, 1, 1, 0,mavlink_heartbeat_t,custom_mode,0,type,10,autopilot,3,base_mode,193,system_status,4,mavlink_version,3,,Len,17
2014-11-13T11:38:33.229,FE,1C,E9, 1, 1,21,mavlink_global_position_int_t,time_boot_ms,33796,lat,0,lon,0,alt,-17000,relative_alt,700,vx,0,vy,0,vz,0,hdg,5665,,Len,36
2014-11-13T11:38:33.229,FE,14,EA, 1, 1,4A,mavlink_vfr_hud_t,airspeed,0,groundspeed,0,alt,0.7,climb,0,heading,56,throttle,16,,Len,28
2014-11-13T11:38:33.229,FE,1C,EB, 1, 1,1E,mavlink_attitude_t,time_boot_ms,33897,roll,-0.100633,pitch,0.08404684,yaw,0.988614,rollspeed,-0.0009255442,pitchspeed,0.001819483,yawspeed,-0.0007650473,,Len,36
2014-11-13T11:38:33.229,FE,14,EC, 1, 1,4A,mavlink_vfr_hud_t,airspeed,0,groundspeed,0,alt,0.76,climb,0,heading,56,throttle,16,,Len,28
2014-11-13T11:38:33.230,FE,1C,ED, 1, 1,1E,mavlink_attitude_t,time_boot_ms,34018,roll,-0.1007156,pitch,0.08424956,yaw,0.9884714,rollspeed,0.0006707856,pitchspeed,0.0007552648,yawspeed,-0.003159541,,Len,36
2014-11-13T11:38:33.230,FE,14,EE, 1, 1,4A,mavlink_vfr_hud_t,airspeed,0,groundspeed,0,alt,0.76,climb,0,heading,56,throttle,16,,Len,28
2014-11-13T11:38:33.230,FE,15,EF, 1, 1,24,mavlink_servo_output_raw_t,time_usec,34099850,servo1_raw,1422,servo2_raw,1499,servo3_raw,1517,servo4_raw,1499,servo5_raw,1553,servo6_raw,1499,servo7_raw,967,servo8_raw,2073,port,0,,Len,29
2014-11-13T11:38:33.230,FE,16,F0, 1, 1,23,mavlink_rc_channels_raw_t,time_boot_ms,34100,chan1_raw,1422,chan2_raw,1499,chan3_raw,1517,chan4_raw,1499,chan5_raw,1553,chan6_raw,1498,chan7_raw,967,chan8_raw,2073,port,0,rssi,0,,Len,30
2014-11-13T11:38:33.231,FE,1C,F1, 1, 1,21,mavlink_global_position_int_t,time_boot_ms,34136,lat,0,lon,0,alt,-17000,relative_alt,910,vx,0,vy,0,vz,0,hdg,5661,,Len,36
2014-11-13T11:38:33.248,FE,1C,F2, 1, 1,1E,mavlink_attitude_t,time_boot_ms,34137,roll,-0.1007019,pitch,0.08420941,yaw,0.9881056,rollspeed,0.0005027365,pitchspeed,0.001571703,yawspeed,-0.004078938,,Len,36
2014-11-13T11:38:33.272,FE,14,F3, 1, 1,4A,mavlink_vfr_hud_t,airspeed,0,groundspeed,0,alt,0.78,climb,0,heading,56,throttle,16,,Len,28
2014-11-13T11:38:33.280,FE,1C,F4, 1, 1,A3,mavlink_ahrs_t,omegaIx,-0.002684603,omegaIy,0.001116744,omegaIz,-0.00306793,accel_weight,0,renorm_val,0,error_rp,0.00924035,error_yaw,0.006576759,,Len,36
2014-11-13T11:38:33.296,FE, 3,F5, 1, 1,A5,mavlink_hwstatus_t,Vcc,4940,I2Cerr,0,,Len,11
2014-11-13T11:38:33.296,FE, C,F6, 1, 1, 2,mavlink_system_time_t,time_unix_usec,0,time_boot_ms,34180,,Len,20
2014-11-13T11:38:33.363,FE,1C,F7, 1, 1,1E,mavlink_attitude_t,time_boot_ms,34257,roll,-0.1007618,pitch,0.08400263,yaw,0.9878606,rollspeed,-0.0002954293,pitchspeed,0.001571703,yawspeed,-0.003014719,,Len,36
2014-11-13T11:38:33.393,FE,1A,F8, 1, 1,1B,mavlink_raw_imu_t,time_usec,34280250,xacc,80,yacc,99,zacc,-962,xgyro,3,ygyro,0,zgyro,0,xmag,85,ymag,-161,zmag,115,,Len,34
2014-11-13T11:38:33.393,FE, 9,7F,33,44,A6,mavlink_radio_t,rxerrors,7,fixed,21,rssi,175,remrssi,181,txbuf,100,noise,45,remnoise,23,,Len,17
2014-11-13T11:38:33.394,FE, 9,7F,33,44,6D,mavlink_radio_status_t,rxerrors,7,fixed,21,rssi,175,remrssi,181,txbuf,100,noise,45,remnoise,23,,Len,17
2014-11-13T11:38:33.489,FE,1F,F9, 1, 1, 1,mavlink_sys_status_t,onboard_control_sensors_present,2153511,onboard_control_sensors_enabled,2097191,onboard_control_sensors_health,2153479,load,377,voltage_battery,0,current_battery,-1,drop_rate_comm,0,errors_comm,0,errors_count1,0,errors_count2,0,errors_count3,0,errors_count4,0,battery_remaining,255,,Len,39
2014-11-13T11:38:33.489,FE, 4,FA, 1, 1,98,mavlink_meminfo_t,brkval,6112,freemem,2048,,Len,12
2014-11-13T11:38:33.490,FE, 2,FB, 1, 1,2A,mavlink_mission_current_t,seq,0,,Len,10
2014-11-13T11:38:33.611,FE,1E,FC, 1, 1,18,mavlink_gps_raw_int_t,time_usec,0,lat,0,lon,0,alt,-17000,eph,9999,epv,65535,vel,0,cog,0,fix_type,1,satellites_visible,0,,Len,38
2014-11-13T11:38:33.611,FE,14,FD, 1, 1,4A,mavlink_vfr_hud_t,airspeed,0,groundspeed,0,alt,0.86,climb,0,heading,56,throttle,16,,Len,28
2014-11-13T11:38:33.723,FE,1C,FE, 1, 1,1E,mavlink_attitude_t,time_boot_ms,34397,roll,-0.1008107,pitch,0.0839918,yaw,0.9874883,rollspeed,0.0005027365,pitchspeed,0.001571703,yawspeed,-0.004078938,,Len,36
2014-11-13T11:38:33.819,FE,14,FF, 1, 1,4A,mavlink_vfr_hud_t,airspeed,0,groundspeed,0,alt,0.77,climb,0,heading,56,throttle,16,,Len,28
2014-11-13T11:38:33.835,FE,1C, 0, 1, 1,21,mavlink_global_position_int_t,time_boot_ms,34498,lat,0,lon,0,alt,-17000,relative_alt,720,vx,0,vy,0,vz,0,hdg,5656,,Len,36
2014-11-13T11:38:33.960,FE,1C, 1, 1, 1,1E,mavlink_attitude_t,time_boot_ms,34517,roll,-0.1008294,pitch,0.08414932,yaw,0.987232,rollspeed,0.0005027365,pitchspeed,0.001571703,yawspeed,-0.003812884,,Len,36
2014-11-13T11:38:33.961,FE,14, 2, 1, 1,4A,mavlink_vfr_hud_t,airspeed,0,groundspeed,0,alt,0.72,climb,0,heading,56,throttle,16,,Len,28
2014-11-13T11:38:34.022,FE, 9,3B,FF,BE, 0,mavlink_heartbeat_t,custom_mode,0,type,6,autopilot,8,base_mode,0,system_status,0,mavlink_version,3,,Len,17
2014-11-13T11:38:34.083,FE,15, 3, 1, 1,24,mavlink_servo_output_raw_t,time_usec,34637680,servo1_raw,1422,servo2_raw,1499,servo3_raw,1517,servo4_raw,1499,servo5_raw,1553,servo6_raw,1499,servo7_raw,967,servo8_raw,2073,port,0,,Len,29
2014-11-13T11:38:34.083,FE,16, 4, 1, 1,23,mavlink_rc_channels_raw_t,time_boot_ms,34637,chan1_raw,1422,chan2_raw,1499,chan3_raw,1517,chan4_raw,1498,chan5_raw,1554,chan6_raw,1499,chan7_raw,966,chan8_raw,2073,port,0,rssi,0,,Len,30
2014-11-13T11:38:34.083,FE,1C, 5, 1, 1,1E,mavlink_attitude_t,time_boot_ms,34638,roll,-0.1008727,pitch,0.08410053,yaw,0.9869357,rollspeed,0.0005027365,pitchspeed,0.001305646,yawspeed,-0.003014719,,Len,36
2014-11-13T11:38:34.114,FE,14, 6, 1, 1,4A,mavlink_vfr_hud_t,airspeed,0,groundspeed,0,alt,0.72,climb,0,heading,56,throttle,16,,Len,28
2014-11-13T11:38:34.114,FE,1C, 7, 1, 1,A3,mavlink_ahrs_t,omegaIx,-0.002684603,omegaIy,0.001116744,omegaIz,-0.00306793,accel_weight,0,renorm_val,0,error_rp,0.005054619,error_yaw,0.00840551,,Len,36
2014-11-13T11:38:34.115,FE, 3, 8, 1, 1,A5,mavlink_hwstatus_t,Vcc,4918,I2Cerr,0,,Len,11
2014-11-13T11:38:34.115,FE, C, 9, 1, 1, 2,mavlink_system_time_t,time_unix_usec,0,time_boot_ms,34718,,Len,20
2014-11-13T11:38:34.124,FE,1C, A, 1, 1,1E,mavlink_attitude_t,time_boot_ms,34758,roll,-0.1009312,pitch,0.084053,yaw,0.9867239,rollspeed,0.0005027365,pitchspeed,0.001571703,yawspeed,-0.003812884,,Len,36
2014-11-13T11:38:34.124,FE, 9, B, 1, 1, 0,mavlink_heartbeat_t,custom_mode,0,type,10,autopilot,3,base_mode,193,system_status,4,mavlink_version,3,,Len,17
2014-11-13T11:38:34.126,FE, 2,3C,FF,BE,15,mavlink_param_request_list_t,target_system,1,target_component,1,,Len,10
2014-11-13T11:38:34.141,FE,1A, C, 1, 1,1B,mavlink_raw_imu_t,time_usec,34798272,xacc,76,yacc,99,zacc,-962,xgyro,3,ygyro,0,zgyro,-1,xmag,85,ymag,-161,zmag,113,,Len,34
2014-11-13T11:38:34.156,FE, 9,80,33,44,A6,mavlink_radio_t,rxerrors,7,fixed,21,rssi,173,remrssi,180,txbuf,100,noise,51,remnoise,22,,Len,17
2014-11-13T11:38:34.156,FE, 9,80,33,44,6D,mavlink_radio_status_t,rxerrors,7,fixed,21,rssi,173,remrssi,180,txbuf,100,noise,51,remnoise,22,,Len,17
2014-11-13T11:38:34.258,FE,2A, D, 1, 1,96,mavlink_sensor_offsets_t,mag_declination,0,raw_press,100707,raw_temp,2887,gyro_cal_x,-0.02127907,gyro_cal_y,-0.04302374,gyro_cal_z,-0.01069541,accel_cal_x,0,accel_cal_y,0,accel_cal_z,0,mag_ofs_x,-73,mag_ofs_y,-48,mag_ofs_z,-6,,Len,50
2014-11-13T11:38:34.258,FE,1F, E, 1, 1, 1,mavlink_sys_status_t,onboard_control_sensors_present,2153511,onboard_control_sensors_enabled,2097191,onboard_control_sensors_health,2153479,load,382,voltage_battery,0,current_battery,-1,drop_rate_comm,0,errors_comm,0,errors_count1,0,errors_count2,0,errors_count3,0,errors_count4,0,battery_remaining,255,,Len,39
2014-11-13T11:38:34.259,FE, 4, F, 1, 1,98,mavlink_meminfo_t,brkval,6112,freemem,2048,,Len,12
2014-11-13T11:38:34.259,FE, 2,10, 1, 1,2A,mavlink_mission_current_t,seq,0,,Len,10
2014-11-13T11:38:34.259,FE,1E,11, 1, 1,18,mavlink_gps_raw_int_t,time_usec,0,lat,0,lon,0,alt,-17000,eph,9999,epv,65535,vel,0,cog,0,fix_type,1,satellites_visible,0,,Len,38
2014-11-13T11:38:34.260,FE,14,12, 1, 1,4A,mavlink_vfr_hud_t,airspeed,0,groundspeed,0,alt,0.71,climb,0,heading,56,throttle,16,,Len,28
2014-11-13T11:38:34.303,FE,1C,13, 1, 1,21,mavlink_global_position_int_t,time_boot_ms,34858,lat,0,lon,0,alt,-17000,relative_alt,710,vx,0,vy,0,vz,0,hdg,5652,,Len,36
2014-11-13T11:38:34.303,FE,1C,14, 1, 1,1E,mavlink_attitude_t,time_boot_ms,34898,roll,-0.1009965,pitch,0.08406373,yaw,0.9864156,rollspeed,-0.001359648,pitchspeed,0.001571703,yawspeed,-0.002748664,,Len,36
2014-11-13T11:38:34.399,FE,14,15, 1, 1,4A,mavlink_vfr_hud_t,airspeed,0,groundspeed,0,alt,0.71,climb,0,heading,56,throttle,16,,Len,28
2014-11-13T11:38:34.415,FE,1C,16, 1, 1,1E,mavlink_attitude_t,time_boot_ms,35017,roll,-0.1032749,pitch,0.08349141,yaw,0.995241,rollspeed,-0.002955978,pitchspeed,-0.01093287,yawspeed,0.0387559,,Len,36
2014-11-13T11:38:34.537,FE,14,17, 1, 1,4A,mavlink_vfr_hud_t,airspeed,0,groundspeed,0,alt,0.75,climb,0,heading,56,throttle,16,,Len,28
2014-11-13T11:38:34.539,FE,33,18, 1, 1,FD,mavlink_statustext_t,severity,1,text,ArduRover v2.46 (5ca3c4ba),,Len,59
2014-11-13T11:38:34.633,FE,19,19, 1, 1,16,mavlink_param_value_t,param_value,16,param_count,247,param_index,0,param_id,FORMAT_VERSION,param_type,4,,Len,33
2014-11-13T11:38:34.771,FE,19,1A, 1, 1,16,mavlink_param_value_t,param_value,20,param_count,247,param_index,1,param_id,SYSID_SW_TYPE,param_type,2,,Len,33
2014-11-13T11:38:34.773,FE,1C,1B, 1, 1,1E,mavlink_attitude_t,time_boot_ms,35163,roll,-0.1005903,pitch,0.08260895,yaw,0.9834056,rollspeed,-0.002423868,pitchspeed,-0.008538381,yawspeed,0.02944398,,Len,36
2014-11-13T11:38:34.773,FE,15,1C, 1, 1,24,mavlink_servo_output_raw_t,time_usec,35204094,servo1_raw,1426,servo2_raw,1499,servo3_raw,1517,servo4_raw,1499,servo5_raw,1553,servo6_raw,1499,servo7_raw,967,servo8_raw,2073,port,0,,Len,29
2014-11-13T11:38:34.801,FE,16,1D, 1, 1,23,mavlink_rc_channels_raw_t,time_boot_ms,35204,chan1_raw,1426,chan2_raw,1499,chan3_raw,1517,chan4_raw,1498,chan5_raw,1554,chan6_raw,1499,chan7_raw,966,chan8_raw,2073,port,0,rssi,0,,Len,30
2014-11-13T11:38:34.801,FE,14,1E, 1, 1,4A,mavlink_vfr_hud_t,airspeed,0,groundspeed,0,alt,0.72,climb,0,heading,56,throttle,16,,Len,28
2014-11-13T11:38:34.802,FE,1C,1F, 1, 1,21,mavlink_global_position_int_t,time_boot_ms,35223,lat,0,lon,0,alt,-17000,relative_alt,720,vx,0,vy,0,vz,0,hdg,5639,,Len,36
2014-11-13T11:38:34.817,FE,19,20, 1, 1,16,mavlink_param_value_t,param_value,16254,param_count,247,param_index,2,param_id,LOG_BITMASK,param_type,6,,Len,33
2014-11-13T11:38:34.833,FE,19,21, 1, 1,16,mavlink_param_value_t,param_value,36,param_count,247,param_index,3,param_id,SYS_NUM_RESETS,param_type,4,,Len,33
2014-11-13T11:38:34.835,FE,19,22, 1, 1,16,mavlink_param_value_t,param_value,0,param_count,247,param_index,4,param_id,RST_SWITCH_CH,param_type,2,,Len,33
2014-11-13T11:38:34.880,FE,1C,23, 1, 1,A3,mavlink_ahrs_t,omegaIx,-0.002684603,omegaIy,0.001116744,omegaIz,-0.00306793,accel_weight,0,renorm_val,0,error_rp,0.01087139,error_yaw,0.008191679,,Len,36
2014-11-13T11:38:34.880,FE, 3,24, 1, 1,A5,mavlink_hwstatus_t,Vcc,4940,I2Cerr,0,,Len,11
2014-11-13T11:38:34.881,FE, C,25, 1, 1, 2,mavlink_system_time_t,time_unix_usec,0,time_boot_ms,35287,,Len,20
2014-11-13T11:38:35.002,FE,1A,26, 1, 1,1B,mavlink_raw_imu_t,time_usec,35343728,xacc,77,yacc,102,zacc,-961,xgyro,1,ygyro,1,zgyro,-2,xmag,87,ymag,-159,zmag,116,,Len,34
2014-11-13T11:38:35.003,FE,1F,27, 1, 1, 1,mavlink_sys_status_t,onboard_control_sensors_present,2153511,onboard_control_sensors_enabled,2097191,onboard_control_sensors_health,2153479,load,408,voltage_battery,0,current_battery,-1,drop_rate_comm,0,errors_comm,0,errors_count1,0,errors_count2,0,errors_count3,0,errors_count4,0,battery_remaining,255,,Len,39
2014-11-13T11:38:35.003,FE, 4,28, 1, 1,98,mavlink_meminfo_t,brkval,6112,freemem,2048,,Len,12
2014-11-13T11:38:35.004,FE, 2,29, 1, 1,2A,mavlink_mission_current_t,seq,0,,Len,10
2014-11-13T11:38:35.018,FE,1E,2A, 1, 1,18,mavlink_gps_raw_int_t,time_usec,0,lat,0,lon,0,alt,-17000,eph,9999,epv,65535,vel,0,cog,0,fix_type,1,satellites_visible,0,,Len,38
2014-11-13T11:38:35.032,FE, 9,3D,FF,BE, 0,mavlink_heartbeat_t,custom_mode,0,type,6,autopilot,8,base_mode,0,system_status,0,mavlink_version,3,,Len,17
2014-11-13T11:38:35.034,FE,19,2B, 1, 1,16,mavlink_param_value_t,param_value,0,param_count,247,param_index,5,param_id,INITIAL_MODE,param_type,2,,Len,33
2014-11-13T11:38:35.036,FE,19,2C, 1, 1,16,mavlink_param_value_t,param_value,-1,param_count,247,param_index,6,param_id,RSSI_PIN,param_type,2,,Len,33
2014-11-13T11:38:35.050,FE,19,2D, 1, 1,16,mavlink_param_value_t,param_value,1,param_count,247,param_index,7,param_id,SYSID_THISMAV,param_type,4,,Len,33
2014-11-13T11:38:35.066,FE,19,2E, 1, 1,16,mavlink_param_value_t,param_value,255,param_count,247,param_index,8,param_id,SYSID_MYGCS,param_type,4,,Len,33
2014-11-13T11:38:35.067,FE,19,2F, 1, 1,16,mavlink_param_value_t,param_value,115,param_count,247,param_index,9,param_id,SERIAL0_BAUD,param_type,4,,Len,33
2014-11-13T11:38:35.082,FE, 9,81,33,44,A6,mavlink_radio_t,rxerrors,7,fixed,21,rssi,176,remrssi,181,txbuf,100,noise,46,remnoise,25,,Len,17
2014-11-13T11:38:35.082,FE, 9,81,33,44,6D,mavlink_radio_status_t,rxerrors,7,fixed,21,rssi,176,remrssi,181,txbuf,100,noise,46,remnoise,25,,Len,17
2014-11-13T11:38:35.156,FE,19,30, 1, 1,16,mavlink_param_value_t,param_value,57,param_count,247,param_index,10,param_id,SERIAL1_BAUD,param_type,4,,Len,33
2014-11-13T11:38:35.158,FE,1C,31, 1, 1,1E,mavlink_attitude_t,time_boot_ms,35604,roll,-0.1008984,pitch,0.08234411,yaw,0.9830642,rollspeed,0.0005027365,pitchspeed,0.001571703,yawspeed,-0.003812884,,Len,36
2014-11-13T11:38:35.158,FE,19,32, 1, 1,16,mavlink_param_value_t,param_value,0,param_count,247,param_index,11,param_id,TELEM_DELAY,param_type,2,,Len,33
2014-11-13T11:38:35.182,FE,19,33, 1, 1,16,mavlink_param_value_t,param_value,0,param_count,247,param_index,12,param_id,SKIP_GYRO_CAL,param_type,2,,Len,33
2014-11-13T11:38:35.183,FE,19,34, 1, 1,16,mavlink_param_value_t,param_value,1,param_count,247,param_index,13,param_id,MAG_ENABLE,param_type,2,,Len,33
2014-11-13T11:38:35.185,FE,14,35, 1, 1,4A,mavlink_vfr_hud_t,airspeed,0,groundspeed,0,alt,0.79,climb,0,heading,56,throttle,16,,Len,28
2014-11-13T11:38:35.214,FE,19,36, 1, 1,16,mavlink_param_value_t,param_value,-1,param_count,247,param_index,14,param_id,AUTO_TRIGGER_PIN,param_type,2,,Len,33
2014-11-13T11:38:35.230,FE,19,37, 1, 1,16,mavlink_param_value_t,param_value,0,param_count,247,param_index,15,param_id,AUTO_KICKSTART,param_type,9,,Len,33
2014-11-13T11:38:35.231,FE,19,38, 1, 1,16,mavlink_param_value_t,param_value,5,param_count,247,param_index,16,param_id,CRUISE_SPEED,param_type,9,,Len,33
2014-11-13T11:38:35.272,FE, 9,39, 1, 1, 0,mavlink_heartbeat_t,custom_mode,0,type,10,autopilot,3,base_mode,193,system_status,4,mavlink_version,3,,Len,17
2014-11-13T11:38:35.272,FE,19,3A, 1, 1,16,mavlink_param_value_t,param_value,50,param_count,247,param_index,17,param_id,SPEED_TURN_GAIN,param_type,2,,Len,33
2014-11-13T11:38:35.274,FE,19,3B, 1, 1,16,mavlink_param_value_t,param_value,2,param_count,247,param_index,18,param_id,SPEED_TURN_DIST,param_type,9,,Len,33
2014-11-13T11:38:35.276,FE,19,3C, 1, 1,16,mavlink_param_value_t,param_value,0,param_count,247,param_index,19,param_id,BRAKING_PERCENT,param_type,2,,Len,33
2014-11-13T11:38:35.301,FE,19,3D, 1, 1,16,mavlink_param_value_t,param_value,3,param_count,247,param_index,20,param_id,BRAKING_SPEEDERR,param_type,9,,Len,33
2014-11-13T11:38:35.304,FE,19,3E, 1, 1,16,mavlink_param_value_t,param_value,30,param_count,247,param_index,21,param_id,PIVOT_TURN_ANGLE,param_type,4,,Len,33
2014-11-13T11:38:35.305,FE,19,3F, 1, 1,16,mavlink_param_value_t,param_value,1,param_count,247,param_index,22,param_id,CH7_OPTION,param_type,2,,Len,33
2014-11-13T11:38:35.333,FE,1C,40, 1, 1,1E,mavlink_attitude_t,time_boot_ms,36024,roll,-0.1040174,pitch,0.08853792,yaw,0.9820551,rollspeed,-0.0476532,pitchspeed,0.09043404,yawspeed,0.05791185,,Len,36
2014-11-13T11:38:35.333,FE,14,41, 1, 1,4A,mavlink_vfr_hud_t,airspeed,0,groundspeed,0,alt,0.79,climb,0,heading,56,throttle,16,,Len,28
2014-11-13T11:38:35.460,FE,19,42, 1, 1,16,mavlink_param_value_t,param_value,1091,param_count,247,param_index,23,param_id,RC1_MIN,param_type,4,,Len,33
2014-11-13T11:38:35.462,FE,19,43, 1, 1,16,mavlink_param_value_t,param_value,1422,param_count,247,param_index,24,param_id,RC1_TRIM,param_type,4,,Len,33
2014-11-13T11:38:35.463,FE,19,44, 1, 1,16,mavlink_param_value_t,param_value,1919,param_count,247,param_index,25,param_id,RC1_MAX,param_type,4,,Len,33
2014-11-13T11:38:35.495,FE,19,45, 1, 1,16,mavlink_param_value_t,param_value,-1,param_count,247,param_index,26,param_id,RC1_REV,param_type,2,,Len,33
2014-11-13T11:38:35.496,FE,19,46, 1, 1,16,mavlink_param_value_t,param_value,30,param_count,247,param_index,27,param_id,RC1_DZ,param_type,4,,Len,33
2014-11-13T11:38:35.498,FE,19,47, 1, 1,16,mavlink_param_value_t,param_value,1498,param_count,247,param_index,28,param_id,RC2_MIN,param_type,4,,Len,33
2014-11-13T11:38:35.523,FE,19,48, 1, 1,16,mavlink_param_value_t,param_value,1499,param_count,247,param_index,29,param_id,RC2_TRIM,param_type,4,,Len,33
2014-11-13T11:38:35.525,FE,19,49, 1, 1,16,mavlink_param_value_t,param_value,1499,param_count,247,param_index,30,param_id,RC2_MAX,param_type,4,,Len,33
2014-11-13T11:38:35.527,FE,19,4A, 1, 1,16,mavlink_param_value_t,param_value,1,param_count,247,param_index,31,param_id,RC2_REV,param_type,2,,Len,33
2014-11-13T11:38:35.555,FE,1C,4B, 1, 1,1E,mavlink_attitude_t,time_boot_ms,36445,roll,-0.1092825,pitch,0.1287091,yaw,0.9882538,rollspeed,-0.02157982,pitchspeed,-0.0662723,yawspeed,0.1097925,,Len,36
2014-11-13T11:38:35.693,FE,19,4C, 1, 1,16,mavlink_param_value_t,param_value,0,param_count,247,param_index,32,param_id,RC2_DZ,param_type,4,,Len,33
2014-11-13T11:38:35.695,FE,19,4D, 1, 1,16,mavlink_param_value_t,param_value,0,param_count,247,param_index,33,param_id,RC2_FUNCTION,param_type,2,,Len,33
2014-11-13T11:38:35.697,FE,19,4E, 1, 1,16,mavlink_param_value_t,param_value,1224,param_count,247,param_index,34,param_id,RC3_MIN,param_type,4,,Len,33
2014-11-13T11:38:35.719,FE,14,4F, 1, 1,4A,mavlink_vfr_hud_t,airspeed,0,groundspeed,0,alt,0.69,climb,0,heading,56,throttle,16,,Len,28
2014-11-13T11:38:35.719,FE,19,50, 1, 1,16,mavlink_param_value_t,param_value,1232,param_count,247,param_index,35,param_id,RC3_TRIM,param_type,4,,Len,33
2014-11-13T11:38:35.721,FE,19,51, 1, 1,16,mavlink_param_value_t,param_value,1923,param_count,247,param_index,36,param_id,RC3_MAX,param_type,4,,Len,33
2014-11-13T11:38:35.735,FE,19,52, 1, 1,16,mavlink_param_value_t,param_value,1,param_count,247,param_index,37,param_id,RC3_REV,param_type,2,,Len,33
2014-11-13T11:38:35.736,FE,1C,53, 1, 1,21,mavlink_global_position_int_t,time_boot_ms,36588,lat,0,lon,0,alt,-17000,relative_alt,750,vx,0,vy,0,vz,0,hdg,5694,,Len,36
2014-11-13T11:38:35.922,FE,19,54, 1, 1,16,mavlink_param_value_t,param_value,30,param_count,247,param_index,38,param_id,RC3_DZ,param_type,4,,Len,33
2014-11-13T11:38:35.924,FE,19,55, 1, 1,16,mavlink_param_value_t,param_value,1498,param_count,247,param_index,39,param_id,RC4_MIN,param_type,4,,Len,33
2014-11-13T11:38:35.925,FE,19,56, 1, 1,16,mavlink_param_value_t,param_value,1499,param_count,247,param_index,40,param_id,RC4_TRIM,param_type,4,,Len,33
2014-11-13T11:38:35.937,FE, 9,57, 1, 1, 0,mavlink_heartbeat_t,custom_mode,0,type,10,autopilot,3,base_mode,193,system_status,4,mavlink_version,3,,Len,17
2014-11-13T11:38:35.963,FE,19,58, 1, 1,16,mavlink_param_value_t,param_value,1499,param_count,247,param_index,41,param_id,RC4_MAX,param_type,4,,Len,33
2014-11-13T11:38:35.965,FE,19,59, 1, 1,16,mavlink_param_value_t,param_value,1,param_count,247,param_index,42,param_id,RC4_REV,param_type,2,,Len,33
2014-11-13T11:38:35.966,FE,19,5A, 1, 1,16,mavlink_param_value_t,param_value,0,param_count,247,param_index,43,param_id,RC4_DZ,param_type,4,,Len,33
2014-11-13T11:38:35.968,FE,1C,5B, 1, 1,1E,mavlink_attitude_t,time_boot_ms,36866,roll,-0.1092356,pitch,0.1360883,yaw,0.9961588,rollspeed,-0.001891759,pitchspeed,-0.02290535,yawspeed,-0.01418902,,Len,36
2014-11-13T11:38:35.995,FE,14,5C, 1, 1,4A,mavlink_vfr_hud_t,airspeed,0,groundspeed,0,alt,0.76,climb,0,heading,57,throttle,16,,Len,28
2014-11-13T11:38:36.042,FE, 9,3E,FF,BE, 0,mavlink_heartbeat_t,custom_mode,0,type,6,autopilot,8,base_mode,0,system_status,0,mavlink_version,3,,Len,17
2014-11-13T11:38:36.069,FE,19,5D, 1, 1,16,mavlink_param_value_t,param_value,0,param_count,247,param_index,44,param_id,RC4_FUNCTION,param_type,2,,Len,33
2014-11-13T11:38:36.071,FE,19,5E, 1, 1,16,mavlink_param_value_t,param_value,1553,param_count,247,param_index,45,param_id,RC5_MIN,param_type,4,,Len,33
2014-11-13T11:38:36.073,FE,19,5F, 1, 1,16,mavlink_param_value_t,param_value,1553,param_count,247,param_index,46,param_id,RC5_TRIM,param_type,4,,Len,33
2014-11-13T11:38:36.117,FE, 9,82,33,44,A6,mavlink_radio_t,rxerrors,7,fixed,21,rssi,178,remrssi,183,txbuf,100,noise,33,remnoise,28,,Len,17
2014-11-13T11:38:36.117,FE, 9,82,33,44,6D,mavlink_radio_status_t,rxerrors,7,fixed,21,rssi,178,remrssi,183,txbuf,100,noise,33,remnoise,28,,Len,17
2014-11-13T11:38:36.246,FE,19,60, 1, 1,16,mavlink_param_value_t,param_value,1554,param_count,247,param_index,47,param_id,RC5_MAX,param_type,4,,Len,33
2014-11-13T11:38:36.358,FE,19,61, 1, 1,16,mavlink_param_value_t,param_value,1,param_count,247,param_index,48,param_id,RC5_REV,param_type,2,,Len,33
2014-11-13T11:38:36.374,FE,19,62, 1, 1,16,mavlink_param_value_t,param_value,0,param_count,247,param_index,49,param_id,RC5_DZ,param_type,4,,Len,33
2014-11-13T11:38:36.376,FE,19,63, 1, 1,16,mavlink_param_value_t,param_value,0,param_count,247,param_index,50,param_id,RC5_FUNCTION,param_type,2,,Len,33
2014-11-13T11:38:36.390,FE,19,64, 1, 1,16,mavlink_param_value_t,param_value,1498,param_count,247,param_index,51,param_id,RC6_MIN,param_type,4,,Len,33
2014-11-13T11:38:36.406,FE,19,65, 1, 1,16,mavlink_param_value_t,param_value,1499,param_count,247,param_index,52,param_id,RC6_TRIM,param_type,4,,Len,33
2014-11-13T11:38:36.408,FE,15,66, 1, 1,24,mavlink_servo_output_raw_t,time_usec,37246943,servo1_raw,1426,servo2_raw,1499,servo3_raw,1517,servo4_raw,1499,servo5_raw,1553,servo6_raw,1499,servo7_raw,967,servo8_raw,2073,port,0,,Len,29
2014-11-13T11:38:36.422,FE,16,67, 1, 1,23,mavlink_rc_channels_raw_t,time_boot_ms,37247,chan1_raw,1426,chan2_raw,1499,chan3_raw,1517,chan4_raw,1498,chan5_raw,1554,chan6_raw,1499,chan7_raw,966,chan8_raw,2073,port,0,rssi,0,,Len,30
2014-11-13T11:38:36.438,FE,1C,68, 1, 1,1E,mavlink_attitude_t,time_boot_ms,37289,roll,-0.1095024,pitch,0.1230348,yaw,1.001938,rollspeed,-0.00801102,pitchspeed,-0.05882275,yawspeed,0.03157242,,Len,36
2014-11-13T11:38:36.438,FE,19,69, 1, 1,16,mavlink_param_value_t,param_value,1499,param_count,247,param_index,53,param_id,RC6_MAX,param_type,4,,Len,33
2014-11-13T11:38:36.470,FE,19,6A, 1, 1,16,mavlink_param_value_t,param_value,1,param_count,247,param_index,54,param_id,RC6_REV,param_type,2,,Len,33
2014-11-13T11:38:36.486,FE,19,6B, 1, 1,16,mavlink_param_value_t,param_value,0,param_count,247,param_index,55,param_id,RC6_DZ,param_type,4,,Len,33
2014-11-13T11:38:36.608,FE,14,6C, 1, 1,4A,mavlink_vfr_hud_t,airspeed,0,groundspeed,0,alt,0.68,climb,0,heading,57,throttle,16,,Len,28
2014-11-13T11:38:36.608,FE,1C,6D, 1, 1,A3,mavlink_ahrs_t,omegaIx,-0.002684603,omegaIy,0.001116744,omegaIz,-0.00306793,accel_weight,0,renorm_val,0,error_rp,0.003266806,error_yaw,0.03254934,,Len,36
2014-11-13T11:38:36.609,FE, 3,6E, 1, 1,A5,mavlink_hwstatus_t,Vcc,4918,I2Cerr,0,,Len,11
2014-11-13T11:38:36.609,FE, C,6F, 1, 1, 2,mavlink_system_time_t,time_unix_usec,0,time_boot_ms,37327,,Len,20
2014-11-13T11:38:36.639,FE,1A,70, 1, 1,1B,mavlink_raw_imu_t,time_usec,37366518,xacc,108,yacc,103,zacc,-973,xgyro,0,ygyro,-5,zgyro,19,xmag,75,ymag,-163,zmag,113,,Len,34
2014-11-13T11:38:36.639,FE,1F,71, 1, 1, 1,mavlink_sys_status_t,onboard_control_sensors_present,2153511,onboard_control_sensors_enabled,2097191,onboard_control_sensors_health,2153479,load,389,voltage_battery,0,current_battery,-1,drop_rate_comm,0,errors_comm,0,errors_count1,0,errors_count2,0,errors_count3,0,errors_count4,0,battery_remaining,255,,Len,39
2014-11-13T11:38:36.640,FE, 4,72, 1, 1,98,mavlink_meminfo_t,brkval,6112,freemem,2048,,Len,12
2014-11-13T11:38:36.640,FE, 2,73, 1, 1,2A,mavlink_mission_current_t,seq,0,,Len,10
2014-11-13T11:38:36.655,FE,1E,74, 1, 1,18,mavlink_gps_raw_int_t,time_usec,0,lat,0,lon,0,alt,-17000,eph,9999,epv,65535,vel,0,cog,0,fix_type,1,satellites_visible,0,,Len,38
2014-11-13T11:38:36.671,FE,19,75, 1, 1,16,mavlink_param_value_t,param_value,0,param_count,247,param_index,56,param_id,RC6_FUNCTION,param_type,2,,Len,33
2014-11-13T11:38:36.673,FE,19,76, 1, 1,16,mavlink_param_value_t,param_value,966,param_count,247,param_index,57,param_id,RC7_MIN,param_type,4,,Len,33
2014-11-13T11:38:36.703,FE,19,77, 1, 1,16,mavlink_param_value_t,param_value,967,param_count,247,param_index,58,param_id,RC7_TRIM,param_type,4,,Len,33
2014-11-13T11:38:36.841,FE,19,78, 1, 1,16,mavlink_param_value_t,param_value,2073,param_count,247,param_index,59,param_id,RC7_MAX,param_type,4,,Len,33
2014-11-13T11:38:36.843,FE,19,79, 1, 1,16,mavlink_param_value_t,param_value,1,param_count,247,param_index,60,param_id,RC7_REV,param_type,2,,Len,33
2014-11-13T11:38:36.844,FE,19,7A, 1, 1,16,mavlink_param_value_t,param_value,0,param_count,247,param_index,61,param_id,RC7_DZ,param_type,4,,Len,33
2014-11-13T11:38:36.877,FE,19,7B, 1, 1,16,mavlink_param_value_t,param_value,0,param_count,247,param_index,62,param_id,RC7_FUNCTION,param_type,2,,Len,33
2014-11-13T11:38:36.879,FE,19,7C, 1, 1,16,mavlink_param_value_t,param_value,966,param_count,247,param_index,63,param_id,RC8_MIN,param_type,4,,Len,33
2014-11-13T11:38:36.880,FE,19,7D, 1, 1,16,mavlink_param_value_t,param_value,2073,param_count,247,param_index,64,param_id,RC8_TRIM,param_type,4,,Len,33
2014-11-13T11:38:36.903,FE,1C,7E, 1, 1,1E,mavlink_attitude_t,time_boot_ms,37727,roll,-0.1088484,pitch,0.1694228,yaw,1.003186,rollspeed,0.00289723,pitchspeed,0.1896725,yawspeed,0.04301278,,Len,36
2014-11-13T11:38:36.903,FE,14,7F, 1, 1,4A,mavlink_vfr_hud_t,airspeed,0,groundspeed,0,alt,0.74,climb,0,heading,57,throttle,16,,Len,28
2014-11-13T11:38:36.904,FE,19,80, 1, 1,16,mavlink_param_value_t,param_value,2073,param_count,247,param_index,65,param_id,RC8_MAX,param_type,4,,Len,33
2014-11-13T11:38:36.919,FE,19,81, 1, 1,16,mavlink_param_value_t,param_value,1,param_count,247,param_index,66,param_id,RC8_REV,param_type,2,,Len,33
2014-11-13T11:38:36.935,FE,19,82, 1, 1,16,mavlink_param_value_t,param_value,0,param_count,247,param_index,67,param_id,RC8_DZ,param_type,4,,Len,33
2014-11-13T11:38:36.952,FE, 9,83, 1, 1, 0,mavlink_heartbeat_t,custom_mode,0,type,10,autopilot,3,base_mode,193,system_status,4,mavlink_version,3,,Len,17
2014-11-13T11:38:36.983,FE,19,84, 1, 1,16,mavlink_param_value_t,param_value,0,param_count,247,param_index,68,param_id,RC8_FUNCTION,param_type,2,,Len,33
2014-11-13T11:38:37.015,FE,19,85, 1, 1,16,mavlink_param_value_t,param_value,1100,param_count,247,param_index,69,param_id,RC10_MIN,param_type,4,,Len,33
2014-11-13T11:38:37.017,FE,19,86, 1, 1,16,mavlink_param_value_t,param_value,1500,param_count,247,param_index,70,param_id,RC10_TRIM,param_type,4,,Len,33
2014-11-13T11:38:37.031,FE,1C,87, 1, 1,21,mavlink_global_position_int_t,time_boot_ms,37947,lat,0,lon,0,alt,-17000,relative_alt,870,vx,0,vy,0,vz,0,hdg,5776,,Len,36
2014-11-13T11:38:37.053,FE, 9,3F,FF,BE, 0,mavlink_heartbeat_t,custom_mode,0,type,6,autopilot,8,base_mode,0,system_status,0,mavlink_version,3,,Len,17
2014-11-13T11:38:37.143,FE, 9,83,33,44,A6,mavlink_radio_t,rxerrors,7,fixed,21,rssi,178,remrssi,184,txbuf,100,noise,45,remnoise,21,,Len,17
2014-11-13T11:38:37.143,FE, 9,83,33,44,6D,mavlink_radio_status_t,rxerrors,7,fixed,21,rssi,178,remrssi,184,txbuf,100,noise,45,remnoise,21,,Len,17
2014-11-13T11:38:37.217,FE,19,88, 1, 1,16,mavlink_param_value_t,param_value,1900,param_count,247,param_index,71,param_id,RC10_MAX,param_type,4,,Len,33
2014-11-13T11:38:37.219,FE,19,89, 1, 1,16,mavlink_param_value_t,param_value,1,param_count,247,param_index,72,param_id,RC10_REV,param_type,2,,Len,33
2014-11-13T11:38:37.221,FE,19,8A, 1, 1,16,mavlink_param_value_t,param_value,0,param_count,247,param_index,73,param_id,RC10_DZ,param_type,4,,Len,33
2014-11-13T11:38:37.281,FE,19,8B, 1, 1,16,mavlink_param_value_t,param_value,0,param_count,247,param_index,74,param_id,RC10_FUNCTION,param_type,2,,Len,33
2014-11-13T11:38:37.312,FE,19,8C, 1, 1,16,mavlink_param_value_t,param_value,1100,param_count,247,param_index,75,param_id,RC11_MIN,param_type,4,,Len,33
2014-11-13T11:38:37.313,FE,19,8D, 1, 1,16,mavlink_param_value_t,param_value,1500,param_count,247,param_index,76,param_id,RC11_TRIM,param_type,4,,Len,33
2014-11-13T11:38:37.316,FE,1C,8E, 1, 1,1E,mavlink_attitude_t,time_boot_ms,38149,roll,-0.1087145,pitch,0.17461,yaw,1.015503,rollspeed,-0.006414692,pitchspeed,0.01567261,yawspeed,0.02013206,,Len,36
2014-11-13T11:38:37.316,FE,14,8F, 1, 1,4A,mavlink_vfr_hud_t,airspeed,0,groundspeed,0,alt,0.75,climb,0,heading,58,throttle,16,,Len,28
2014-11-13T11:38:37.344,FE,19,90, 1, 1,16,mavlink_param_value_t,param_value,1900,param_count,247,param_index,77,param_id,RC11_MAX,param_type,4,,Len,33
2014-11-13T11:38:37.406,FE,19,91, 1, 1,16,mavlink_param_value_t,param_value,1,param_count,247,param_index,78,param_id,RC11_REV,param_type,2,,Len,33
2014-11-13T11:38:37.408,FE,19,92, 1, 1,16,mavlink_param_value_t,param_value,0,param_count,247,param_index,79,param_id,RC11_DZ,param_type,4,,Len,33
2014-11-13T11:38:37.528,FE,19,93, 1, 1,16,mavlink_param_value_t,param_value,0,param_count,247,param_index,80,param_id,RC11_FUNCTION,param_type,2,,Len,33
2014-11-13T11:38:37.529,FE,19,94, 1, 1,16,mavlink_param_value_t,param_value,0,param_count,247,param_index,81,param_id,THR_MIN,param_type,2,,Len,33
2014-11-13T11:38:37.531,FE,19,95, 1, 1,16,mavlink_param_value_t,param_value,100,param_count,247,param_index,82,param_id,THR_MAX,param_type,2,,Len,33
2014-11-13T11:38:37.624,FE,19,96, 1, 1,16,mavlink_param_value_t,param_value,20,param_count,247,param_index,83,param_id,CRUISE_THROTTLE,param_type,2,,Len,33
2014-11-13T11:38:37.747,FE,19,97, 1, 1,16,mavlink_param_value_t,param_value,100,param_count,247,param_index,84,param_id,THR_SLEWRATE,param_type,2,,Len,33
2014-11-13T11:38:37.749,FE,19,98, 1, 1,16,mavlink_param_value_t,param_value,0,param_count,247,param_index,85,param_id,SKID_STEER_OUT,param_type,2,,Len,33
2014-11-13T11:38:37.860,FE,1C,99, 1, 1,1E,mavlink_attitude_t,time_boot_ms,38568,roll,-0.1077798,pitch,0.2118478,yaw,1.023541,rollspeed,0.001034846,pitchspeed,0.07792945,yawspeed,-0.005675267,,Len,36
2014-11-13T11:38:37.860,FE,19,9A, 1, 1,16,mavlink_param_value_t,param_value,0,param_count,247,param_index,86,param_id,SKID_STEER_IN,param_type,2,,Len,33
2014-11-13T11:38:37.903,FE,19,9B, 1, 1,16,mavlink_param_value_t,param_value,2,param_count,247,param_index,87,param_id,FS_ACTION,param_type,2,,Len,33
2014-11-13T11:38:37.905,FE,19,9C, 1, 1,16,mavlink_param_value_t,param_value,5,param_count,247,param_index,88,param_id,FS_TIMEOUT,param_type,9,,Len,33
2014-11-13T11:38:37.907,FE,14,9D, 1, 1,4A,mavlink_vfr_hud_t,airspeed,0,groundspeed,0,alt,0.74,climb,0,heading,58,throttle,16,,Len,28
2014-11-13T11:38:37.945,FE,19,9E, 1, 1,16,mavlink_param_value_t,param_value,1,param_count,247,param_index,89,param_id,FS_THR_ENABLE,param_type,2,,Len,33
2014-11-13T11:38:37.947,FE,19,9F, 1, 1,16,mavlink_param_value_t,param_value,910,param_count,247,param_index,90,param_id,FS_THR_VALUE,param_type,4,,Len,33
2014-11-13T11:38:37.949,FE,19,A0, 1, 1,16,mavlink_param_value_t,param_value,0,param_count,247,param_index,91,param_id,FS_GCS_ENABLE,param_type,2,,Len,33
2014-11-13T11:38:37.951,FE, 9,A1, 1, 1, 0,mavlink_heartbeat_t,custom_mode,0,type,10,autopilot,3,base_mode,193,system_status,4,mavlink_version,3,,Len,17
2014-11-13T11:38:37.987,FE,19,A2, 1, 1,16,mavlink_param_value_t,param_value,100,param_count,247,param_index,92,param_id,RNGFND_TRIGGR_CM,param_type,4,,Len,33
2014-11-13T11:38:37.989,FE,19,A3, 1, 1,16,mavlink_param_value_t,param_value,45,param_count,247,param_index,93,param_id,RNGFND_TURN_ANGL,param_type,9,,Len,33
2014-11-13T11:38:37.991,FE,19,A4, 1, 1,16,mavlink_param_value_t,param_value,1,param_count,247,param_index,94,param_id,RNGFND_TURN_TIME,param_type,9,,Len,33
2014-11-13T11:38:38.063,FE, 9,40,FF,BE, 0,mavlink_heartbeat_t,custom_mode,0,type,6,autopilot,8,base_mode,0,system_status,0,mavlink_version,3,,Len,17
2014-11-13T11:38:38.096,FE,19,A5, 1, 1,16,mavlink_param_value_t,param_value,2,param_count,247,param_index,95,param_id,RNGFND_DEBOUNCE,param_type,2,,Len,33
2014-11-13T11:38:38.098,FE,19,A6, 1, 1,16,mavlink_param_value_t,param_value,7,param_count,247,param_index,96,param_id,LEARN_CH,param_type,2,,Len,33
2014-11-13T11:38:38.199,FE,19,A7, 1, 1,16,mavlink_param_value_t,param_value,8,param_count,247,param_index,97,param_id,MODE_CH,param_type,2,,Len,33
2014-11-13T11:38:38.214,FE,1C,A8, 1, 1,1E,mavlink_attitude_t,time_boot_ms,38991,roll,-0.1069258,pitch,0.2108453,yaw,1.029697,rollspeed,0.00183301,pitchspeed,-0.0119971,yawspeed,-0.003546828,,Len,36
2014-11-13T11:38:38.214,FE,14,A9, 1, 1,4A,mavlink_vfr_hud_t,airspeed,0,groundspeed,0,alt,0.76,climb,0,heading,59,throttle,16,,Len,28
2014-11-13T11:38:38.231,FE,19,AA, 1, 1,16,mavlink_param_value_t,param_value,10,param_count,247,param_index,98,param_id,MODE1,param_type,2,,Len,33
2014-11-13T11:38:38.246,FE,19,AB, 1, 1,16,mavlink_param_value_t,param_value,2,param_count,247,param_index,99,param_id,MODE2,param_type,2,,Len,33
2014-11-13T11:38:38.248,FE,19,AC, 1, 1,16,mavlink_param_value_t,param_value,2,param_count,247,param_index,100,param_id,MODE3,param_type,2,,Len,33
2014-11-13T11:38:38.294,FE, 9,84,33,44,A6,mavlink_radio_t,rxerrors,7,fixed,21,rssi,178,remrssi,184,txbuf,100,noise,37,remnoise,22,,Len,17
2014-11-13T11:38:38.295,FE, 9,84,33,44,6D,mavlink_radio_status_t,rxerrors,7,fixed,21,rssi,178,remrssi,184,txbuf,100,noise,37,remnoise,22,,Len,17
2014-11-13T11:38:38.369,FE,19,AD, 1, 1,16,mavlink_param_value_t,param_value,2,param_count,247,param_index,101,param_id,MODE4,param_type,2,,Len,33
2014-11-13T11:38:38.371,FE,19,AE, 1, 1,16,mavlink_param_value_t,param_value,2,param_count,247,param_index,102,param_id,MODE5,param_type,2,,Len,33
2014-11-13T11:38:38.372,FE,19,AF, 1, 1,16,mavlink_param_value_t,param_value,0,param_count,247,param_index,103,param_id,MODE6,param_type,2,,Len,33
2014-11-13T11:38:38.446,FE,1C,B0, 1, 1,21,mavlink_global_position_int_t,time_boot_ms,39292,lat,0,lon,0,alt,-17000,relative_alt,740,vx,0,vy,0,vz,0,hdg,5926,,Len,36
2014-11-13T11:38:38.446,FE,15,B1, 1, 1,24,mavlink_servo_output_raw_t,time_usec,39292947,servo1_raw,1426,servo2_raw,1499,servo3_raw,1517,servo4_raw,1499,servo5_raw,1553,servo6_raw,1499,servo7_raw,967,servo8_raw,2073,port,0,,Len,29
2014-11-13T11:38:38.447,FE,16,B2, 1, 1,23,mavlink_rc_channels_raw_t,time_boot_ms,39292,chan1_raw,1426,chan2_raw,1499,chan3_raw,1517,chan4_raw,1499,chan5_raw,1554,chan6_raw,1498,chan7_raw,967,chan8_raw,2073,port,0,rssi,0,,Len,30
2014-11-13T11:38:38.462,FE,19,B3, 1, 1,16,mavlink_param_value_t,param_value,4,param_count,247,param_index,104,param_id,WP_RADIUS,param_type,9,,Len,33
2014-11-13T11:38:38.478,FE,19,B4, 1, 1,16,mavlink_param_value_t,param_value,1,param_count,247,param_index,105,param_id,TURN_MAX_G,param_type,9,,Len,33
2014-11-13T11:38:38.479,FE,19,B5, 1, 1,16,mavlink_param_value_t,param_value,0.75,param_count,247,param_index,106,param_id,STEER2SRV_TCONST,param_type,9,,Len,33
2014-11-13T11:38:38.494,FE,1A,B6, 1, 1,1B,mavlink_raw_imu_t,time_usec,39391840,xacc,184,yacc,106,zacc,-924,xgyro,5,ygyro,-70,zgyro,-10,xmag,58,ymag,-164,zmag,112,,Len,34
2014-11-13T11:38:38.510,FE,1F,B7, 1, 1, 1,mavlink_sys_status_t,onboard_control_sensors_present,2153511,onboard_control_sensors_enabled,2097191,onboard_control_sensors_health,2153479,load,387,voltage_battery,0,current_battery,-1,drop_rate_comm,0,errors_comm,0,errors_count1,0,errors_count2,0,errors_count3,0,errors_count4,0,battery_remaining,255,,Len,39
2014-11-13T11:38:38.510,FE, 4,B8, 1, 1,98,mavlink_meminfo_t,brkval,6112,freemem,2048,,Len,12
2014-11-13T11:38:38.511,FE, 2,B9, 1, 1,2A,mavlink_mission_current_t,seq,0,,Len,10
2014-11-13T11:38:38.542,FE,1E,BA, 1, 1,18,mavlink_gps_raw_int_t,time_usec,0,lat,0,lon,0,alt,-17000,eph,9999,epv,65535,vel,0,cog,0,fix_type,1,satellites_visible,0,,Len,38
2014-11-13T11:38:38.558,FE,1C,BB, 1, 1,A3,mavlink_ahrs_t,omegaIx,-0.002795486,omegaIy,0.0009012045,omegaIz,-0.002334164,accel_weight,0,renorm_val,0,error_rp,0.00593175,error_yaw,0.0500293,,Len,36
2014-11-13T11:38:38.574,FE, 3,BC, 1, 1,A5,mavlink_hwstatus_t,Vcc,4918,I2Cerr,0,,Len,11
2014-11-13T11:38:38.600,FE, C,BD, 1, 1, 2,mavlink_system_time_t,time_unix_usec,0,time_boot_ms,39411,,Len,20
2014-11-13T11:38:38.600,FE,1C,BE, 1, 1,1E,mavlink_attitude_t,time_boot_ms,39429,roll,-0.1067683,pitch,0.1884983,yaw,1.034342,rollspeed,0.003584511,pitchspeed,-0.1524236,yawspeed,-0.01797819,,Len,36
2014-11-13T11:38:38.601,FE,19,BF, 1, 1,16,mavlink_param_value_t,param_value,0.5,param_count,247,param_index,107,param_id,STEER2SRV_P,param_type,9,,Len,33
2014-11-13T11:38:38.626,FE,19,C0, 1, 1,16,mavlink_param_value_t,param_value,0.2,param_count,247,param_index,108,param_id,STEER2SRV_I,param_type,9,,Len,33
2014-11-13T11:38:38.628,FE,19,C1, 1, 1,16,mavlink_param_value_t,param_value,0.005,param_count,247,param_index,109,param_id,STEER2SRV_D,param_type,9,,Len,33
2014-11-13T11:38:38.629,FE,14,C2, 1, 1,4A,mavlink_vfr_hud_t,airspeed,0,groundspeed,0,alt,0.77,climb,0,heading,59,throttle,16,,Len,28
2014-11-13T11:38:38.716,FE,19,C3, 1, 1,16,mavlink_param_value_t,param_value,1500,param_count,247,param_index,110,param_id,STEER2SRV_IMAX,param_type,4,,Len,33
2014-11-13T11:38:38.718,FE,19,C4, 1, 1,16,mavlink_param_value_t,param_value,1,param_count,247,param_index,111,param_id,STEER2SRV_MINSPD,param_type,9,,Len,33
2014-11-13T11:38:38.719,FE,19,C5, 1, 1,16,mavlink_param_value_t,param_value,0.7,param_count,247,param_index,112,param_id,SPEED2THR_P,param_type,9,,Len,33
2014-11-13T11:38:38.892,FE,19,C6, 1, 1,16,mavlink_param_value_t,param_value,0.2,param_count,247,param_index,113,param_id,SPEED2THR_I,param_type,9,,Len,33
2014-11-13T11:38:38.908,FE,19,C7, 1, 1,16,mavlink_param_value_t,param_value,0.2,param_count,247,param_index,114,param_id,SPEED2THR_D,param_type,9,,Len,33
2014-11-13T11:38:38.909,FE,19,C8, 1, 1,16,mavlink_param_value_t,param_value,4000,param_count,247,param_index,115,param_id,SPEED2THR_IMAX,param_type,4,,Len,33
2014-11-13T11:38:38.937,FE, 9,C9, 1, 1, 0,mavlink_heartbeat_t,custom_mode,0,type,10,autopilot,3,base_mode,193,system_status,4,mavlink_version,3,,Len,17
2014-11-13T11:38:38.937,FE,19,CA, 1, 1,16,mavlink_param_value_t,param_value,-73.67425,param_count,247,param_index,116,param_id,COMPASS_OFS_X,param_type,9,,Len,33
2014-11-13T11:38:38.939,FE,19,CB, 1, 1,16,mavlink_param_value_t,param_value,-48.68686,param_count,247,param_index,117,param_id,COMPASS_OFS_Y,param_type,9,,Len,33
2014-11-13T11:38:38.953,FE,19,CC, 1, 1,16,mavlink_param_value_t,param_value,-6.594303,param_count,247,param_index,118,param_id,COMPASS_OFS_Z,param_type,9,,Len,33
2014-11-13T11:38:38.955,FE,1C,CD, 1, 1,1E,mavlink_attitude_t,time_boot_ms,39850,roll,-0.1081259,pitch,0.1705958,yaw,1.040409,rollspeed,-0.001736588,pitchspeed,0.007741482,yawspeed,0.0115539,,Len,36
2014-11-13T11:38:39.073,FE, 9,41,FF,BE, 0,mavlink_heartbeat_t,custom_mode,0,type,6,autopilot,8,base_mode,0,system_status,0,mavlink_version,3,,Len,17
2014-11-13T11:38:39.139,FE,14,CE, 1, 1,4A,mavlink_vfr_hud_t,airspeed,0,groundspeed,0,alt,0.79,climb,0,heading,59,throttle,16,,Len,28
2014-11-13T11:38:39.139,FE,19,CF, 1, 1,16,mavlink_param_value_t,param_value,0,param_count,247,param_index,119,param_id,COMPASS_DEC,param_type,9,,Len,33
2014-11-13T11:38:39.141,FE,19,D0, 1, 1,16,mavlink_param_value_t,param_value,1,param_count,247,param_index,120,param_id,COMPASS_LEARN,param_type,2,,Len,33
2014-11-13T11:38:39.143,FE,19,D1, 1, 1,16,mavlink_param_value_t,param_value,1,param_count,247,param_index,121,param_id,COMPASS_USE,param_type,2,,Len,33
2014-11-13T11:38:39.156,FE,19,D2, 1, 1,16,mavlink_param_value_t,param_value,1,param_count,247,param_index,122,param_id,COMPASS_AUTODEC,param_type,2,,Len,33
2014-11-13T11:38:39.171,FE,19,D3, 1, 1,16,mavlink_param_value_t,param_value,0,param_count,247,param_index,123,param_id,COMPASS_MOTCT,param_type,2,,Len,33
2014-11-13T11:38:39.172,FE,19,D4, 1, 1,16,mavlink_param_value_t,param_value,0,param_count,247,param_index,124,param_id,COMPASS_MOT_X,param_type,9,,Len,33
2014-11-13T11:38:39.203,FE, 9,85,33,44,A6,mavlink_radio_t,rxerrors,7,fixed,21,rssi,178,remrssi,184,txbuf,100,noise,46,remnoise,22,,Len,17
2014-11-13T11:38:39.219,FE, 9,85,33,44,6D,mavlink_radio_status_t,rxerrors,7,fixed,21,rssi,178,remrssi,184,txbuf,100,noise,46,remnoise,22,,Len,17
2014-11-13T11:38:39.373,FE,19,D5, 1, 1,16,mavlink_param_value_t,param_value,0,param_count,247,param_index,125,param_id,COMPASS_MOT_Y,param_type,9,,Len,33
2014-11-13T11:38:39.375,FE,19,D6, 1, 1,16,mavlink_param_value_t,param_value,0,param_count,247,param_index,126,param_id,COMPASS_MOT_Z,param_type,9,,Len,33
2014-11-13T11:38:39.376,FE,19,D7, 1, 1,16,mavlink_param_value_t,param_value,8,param_count,247,param_index,127,param_id,COMPASS_ORIENT,param_type,2,,Len,33
2014-11-13T11:38:39.378,FE,1C,D8, 1, 1,1E,mavlink_attitude_t,time_boot_ms,40271,roll,-0.1085935,pitch,0.1566936,yaw,1.039183,rollspeed,-0.0006723672,pitchspeed,-0.04227684,yawspeed,-0.01212498,,Len,36
2014-11-13T11:38:39.431,FE,19,D9, 1, 1,16,mavlink_param_value_t,param_value,0,param_count,247,param_index,128,param_id,COMPASS_EXTERNAL,param_type,2,,Len,33
2014-11-13T11:38:39.432,FE,19,DA, 1, 1,16,mavlink_param_value_t,param_value,0,param_count,247,param_index,129,param_id,SCHED_DEBUG,param_type,2,,Len,33
2014-11-13T11:38:39.434,FE,19,DB, 1, 1,16,mavlink_param_value_t,param_value,100715.4,param_count,247,param_index,130,param_id,GND_ABS_PRESS,param_type,9,,Len,33
2014-11-13T11:38:39.575,FE,14,DC, 1, 1,4A,mavlink_vfr_hud_t,airspeed,0,groundspeed,0,alt,0.82,climb,0,heading,59,throttle,16,,Len,28
2014-11-13T11:38:39.601,FE,19,DD, 1, 1,16,mavlink_param_value_t,param_value,27.30745,param_count,247,param_index,131,param_id,GND_TEMP,param_type,9,,Len,33
2014-11-13T11:38:39.603,FE,19,DE, 1, 1,16,mavlink_param_value_t,param_value,0,param_count,247,param_index,132,param_id,GND_ALT_OFFSET,param_type,2,,Len,33
2014-11-13T11:38:39.605,FE,19,DF, 1, 1,16,mavlink_param_value_t,param_value,13,param_count,247,param_index,133,param_id,RELAY_PIN,param_type,2,,Len,33
2014-11-13T11:38:39.617,FE,19,E0, 1, 1,16,mavlink_param_value_t,param_value,-1,param_count,247,param_index,134,param_id,RELAY_PIN2,param_type,2,,Len,33
2014-11-13T11:38:39.659,FE,19,E1, 1, 1,16,mavlink_param_value_t,param_value,-1,param_count,247,param_index,135,param_id,RELAY_PIN3,param_type,2,,Len,33
2014-11-13T11:38:39.660,FE,19,E2, 1, 1,16,mavlink_param_value_t,param_value,-1,param_count,247,param_index,136,param_id,RELAY_PIN4,param_type,2,,Len,33
2014-11-13T11:38:39.817,FE,1C,E3, 1, 1,21,mavlink_global_position_int_t,time_boot_ms,40651,lat,0,lon,0,alt,-17000,relative_alt,720,vx,0,vy,0,vz,0,hdg,5939,,Len,36
2014-11-13T11:38:39.817,FE,19,E4, 1, 1,16,mavlink_param_value_t,param_value,0,param_count,247,param_index,137,param_id,RELAY_DEFAULT,param_type,2,,Len,33
2014-11-13T11:38:39.861,FE,19,E5, 1, 1,16,mavlink_param_value_t,param_value,1,param_count,247,param_index,138,param_id,RCMAP_ROLL,param_type,2,,Len,33
2014-11-13T11:38:39.863,FE,19,E6, 1, 1,16,mavlink_param_value_t,param_value,2,param_count,247,param_index,139,param_id,RCMAP_PITCH,param_type,2,,Len,33
2014-11-13T11:38:39.864,FE,1C,E7, 1, 1,1E,mavlink_attitude_t,time_boot_ms,40696,roll,-0.1085798,pitch,0.160153,yaw,1.036978,rollspeed,-0.001470531,pitchspeed,-0.003964934,yawspeed,0.003306199,,Len,36
2014-11-13T11:38:39.925,FE,14,E8, 1, 1,4A,mavlink_vfr_hud_t,airspeed,0,groundspeed,0,alt,0.74,climb,0,heading,59,throttle,16,,Len,28
2014-11-13T11:38:39.925,FE,19,E9, 1, 1,16,mavlink_param_value_t,param_value,3,param_count,247,param_index,140,param_id,RCMAP_THROTTLE,param_type,2,,Len,33
2014-11-13T11:38:40.033,FE,19,EA, 1, 1,16,mavlink_param_value_t,param_value,4,param_count,247,param_index,141,param_id,RCMAP_YAW,param_type,2,,Len,33
2014-11-13T11:38:40.049,FE,19,EB, 1, 1,16,mavlink_param_value_t,param_value,2,param_count,247,param_index,142,param_id,SR0_RAW_SENS,param_type,4,,Len,33
2014-11-13T11:38:40.052,FE, 9,EC, 1, 1, 0,mavlink_heartbeat_t,custom_mode,0,type,10,autopilot,3,base_mode,193,system_status,4,mavlink_version,3,,Len,17
2014-11-13T11:38:40.083,FE, 9,42,FF,BE, 0,mavlink_heartbeat_t,custom_mode,0,type,6,autopilot,8,base_mode,0,system_status,0,mavlink_version,3,,Len,17
2014-11-13T11:38:40.129,FE, 9,86,33,44,A6,mavlink_radio_t,rxerrors,7,fixed,21,rssi,176,remrssi,184,txbuf,100,noise,53,remnoise,22,,Len,17
2014-11-13T11:38:40.129,FE, 9,86,33,44,6D,mavlink_radio_status_t,rxerrors,7,fixed,21,rssi,176,remrssi,184,txbuf,100,noise,53,remnoise,22,,Len,17
2014-11-13T11:38:40.206,FE,19,ED, 1, 1,16,mavlink_param_value_t,param_value,2,param_count,247,param_index,143,param_id,SR0_EXT_STAT,param_type,4,,Len,33
2014-11-13T11:38:40.208,FE,19,EE, 1, 1,16,mavlink_param_value_t,param_value,2,param_count,247,param_index,144,param_id,SR0_RC_CHAN,param_type,4,,Len,33
2014-11-13T11:38:40.210,FE,19,EF, 1, 1,16,mavlink_param_value_t,param_value,1,param_count,247,param_index,145,param_id,SR0_RAW_CTRL,param_type,4,,Len,33
2014-11-13T11:38:40.238,FE,19,F0, 1, 1,16,mavlink_param_value_t,param_value,3,param_count,247,param_index,146,param_id,SR0_POSITION,param_type,4,,Len,33
2014-11-13T11:38:40.240,FE,19,F1, 1, 1,16,mavlink_param_value_t,param_value,10,param_count,247,param_index,147,param_id,SR0_EXTRA1,param_type,4,,Len,33
2014-11-13T11:38:40.241,FE,19,F2, 1, 1,16,mavlink_param_value_t,param_value,10,param_count,247,param_index,148,param_id,SR0_EXTRA2,param_type,4,,Len,33
2014-11-13T11:38:40.280,FE,1C,F3, 1, 1,1E,mavlink_attitude_t,time_boot_ms,41112,roll,-0.108831,pitch,0.1607709,yaw,1.036353,rollspeed,0.0003918533,pitchspeed,0.009603863,yawspeed,-0.0001525143,,Len,36
2014-11-13T11:38:40.280,FE,19,F4, 1, 1,16,mavlink_param_value_t,param_value,2,param_count,247,param_index,149,param_id,SR0_EXTRA3,param_type,4,,Len,33
2014-11-13T11:38:40.392,FE,19,F5, 1, 1,16,mavlink_param_value_t,param_value,10,param_count,247,param_index,150,param_id,SR0_PARAMS,param_type,4,,Len,33
2014-11-13T11:38:40.394,FE,19,F6, 1, 1,16,mavlink_param_value_t,param_value,1,param_count,247,param_index,151,param_id,SR1_RAW_SENS,param_type,4,,Len,33
2014-11-13T11:38:40.516,FE,14,F7, 1, 1,4A,mavlink_vfr_hud_t,airspeed,0,groundspeed,0,alt,0.75,climb,0,heading,59,throttle,16,,Len,28
2014-11-13T11:38:40.516,FE,19,F8, 1, 1,16,mavlink_param_value_t,param_value,1,param_count,247,param_index,152,param_id,SR1_EXT_STAT,param_type,4,,Len,33
2014-11-13T11:38:40.518,FE,19,F9, 1, 1,16,mavlink_param_value_t,param_value,1,param_count,247,param_index,153,param_id,SR1_RC_CHAN,param_type,4,,Len,33
2014-11-13T11:38:40.532,FE,19,FA, 1, 1,16,mavlink_param_value_t,param_value,1,param_count,247,param_index,154,param_id,SR1_RAW_CTRL,param_type,4,,Len,33
2014-11-13T11:38:40.548,FE,15,FB, 1, 1,24,mavlink_servo_output_raw_t,time_usec,41332548,servo1_raw,1426,servo2_raw,1499,servo3_raw,1517,servo4_raw,1499,servo5_raw,1553,servo6_raw,1499,servo7_raw,967,servo8_raw,2073,port,0,,Len,29
2014-11-13T11:38:40.548,FE,16,FC, 1, 1,23,mavlink_rc_channels_raw_t,time_boot_ms,41332,chan1_raw,1426,chan2_raw,1499,chan3_raw,1517,chan4_raw,1499,chan5_raw,1554,chan6_raw,1499,chan7_raw,966,chan8_raw,2073,port,0,rssi,0,,Len,30
2014-11-13T11:38:40.564,FE,19,FD, 1, 1,16,mavlink_param_value_t,param_value,1,param_count,247,param_index,155,param_id,SR1_POSITION,param_type,4,,Len,33
2014-11-13T11:38:40.580,FE,19,FE, 1, 1,16,mavlink_param_value_t,param_value,1,param_count,247,param_index,156,param_id,SR1_EXTRA1,param_type,4,,Len,33
2014-11-13T11:38:40.582,FE,19,FF, 1, 1,16,mavlink_param_value_t,param_value,1,param_count,247,param_index,157,param_id,SR1_EXTRA2,param_type,4,,Len,33
2014-11-13T11:38:40.611,FE,1A, 0, 1, 1,1B,mavlink_raw_imu_t,time_usec,41413140,xacc,163,yacc,100,zacc,-936,xgyro,5,ygyro,0,zgyro,-2,xmag,65,ymag,-163,zmag,113,,Len,34
2014-11-13T11:38:40.628,FE,1F, 1, 1, 1, 1,mavlink_sys_status_t,onboard_control_sensors_present,2153511,onboard_control_sensors_enabled,2097191,onboard_control_sensors_health,2153479,load,388,voltage_battery,0,current_battery,-1,drop_rate_comm,0,errors_comm,0,errors_count1,0,errors_count2,0,errors_count3,0,errors_count4,0,battery_remaining,255,,Len,39
2014-11-13T11:38:40.670,FE, 4, 2, 1, 1,98,mavlink_meminfo_t,brkval,6112,freemem,2048,,Len,12
2014-11-13T11:38:40.670,FE, 2, 3, 1, 1,2A,mavlink_mission_current_t,seq,0,,Len,10
2014-11-13T11:38:40.670,FE,1E, 4, 1, 1,18,mavlink_gps_raw_int_t,time_usec,0,lat,0,lon,0,alt,-17000,eph,9999,epv,65535,vel,0,cog,0,fix_type,1,satellites_visible,0,,Len,38
2014-11-13T11:38:40.671,FE,1C, 5, 1, 1,A3,mavlink_ahrs_t,omegaIx,-0.002795486,omegaIy,0.0009012045,omegaIz,-0.002334164,accel_weight,0,renorm_val,0,error_rp,0.007023696,error_yaw,0.01351656,,Len,36
2014-11-13T11:38:40.671,FE, 3, 6, 1, 1,A5,mavlink_hwstatus_t,Vcc,4940,I2Cerr,0,,Len,11
2014-11-13T11:38:40.683,FE, C, 7, 1, 1, 2,mavlink_system_time_t,time_unix_usec,0,time_boot_ms,41453,,Len,20
2014-11-13T11:38:40.683,FE,19, 8, 1, 1,16,mavlink_param_value_t,param_value,1,param_count,247,param_index,158,param_id,SR1_EXTRA3,param_type,4,,Len,33
2014-11-13T11:38:40.699,FE,19, 9, 1, 1,16,mavlink_param_value_t,param_value,10,param_count,247,param_index,159,param_id,SR1_PARAMS,param_type,4,,Len,33
2014-11-13T11:38:40.731,FE,19, A, 1, 1,16,mavlink_param_value_t,param_value,8,param_count,247,param_index,160,param_id,NAVL1_PERIOD,param_type,9,,Len,33
2014-11-13T11:38:40.747,FE,1C, B, 1, 1,1E,mavlink_attitude_t,time_boot_ms,41552,roll,-0.1089401,pitch,0.1628664,yaw,1.035605,rollspeed,-0.0001402579,pitchspeed,-0.03429519,yawspeed,-0.00866627,,Len,36
2014-11-13T11:38:40.747,FE,14, C, 1, 1,4A,mavlink_vfr_hud_t,airspeed,0,groundspeed,0,alt,0.72,climb,0,heading,59,throttle,16,,Len,28
2014-11-13T11:38:40.763,FE,19, D, 1, 1,16,mavlink_param_value_t,param_value,0.75,param_count,247,param_index,161,param_id,NAVL1_DAMPING,param_type,9,,Len,33
2014-11-13T11:38:40.779,FE,19, E, 1, 1,16,mavlink_param_value_t,param_value,0,param_count,247,param_index,162,param_id,RNGFND_TYPE,param_type,2,,Len,33
2014-11-13T11:38:40.780,FE,19, F, 1, 1,16,mavlink_param_value_t,param_value,-1,param_count,247,param_index,163,param_id,RNGFND_PIN,param_type,2,,Len,33
2014-11-13T11:38:40.843,FE,19,10, 1, 1,16,mavlink_param_value_t,param_value,3,param_count,247,param_index,164,param_id,RNGFND_SCALING,param_type,9,,Len,33
2014-11-13T11:38:40.955,FE,19,11, 1, 1,16,mavlink_param_value_t,param_value,0,param_count,247,param_index,165,param_id,RNGFND_OFFSET,param_type,9,,Len,33
2014-11-13T11:38:40.971,FE,19,12, 1, 1,16,mavlink_param_value_t,param_value,0,param_count,247,param_index,166,param_id,RNGFND_FUNCTION,param_type,2,,Len,33
2014-11-13T11:38:40.973,FE, 9,13, 1, 1, 0,mavlink_heartbeat_t,custom_mode,0,type,10,autopilot,3,base_mode,193,system_status,4,mavlink_version,3,,Len,17
2014-11-13T11:38:41.083,FE,19,14, 1, 1,16,mavlink_param_value_t,param_value,20,param_count,247,param_index,167,param_id,RNGFND_MIN_CM,param_type,4,,Len,33
2014-11-13T11:38:41.085,FE,19,15, 1, 1,16,mavlink_param_value_t,param_value,700,param_count,247,param_index,168,param_id,RNGFND_MAX_CM,param_type,4,,Len,33
2014-11-13T11:38:41.093,FE, 9,43,FF,BE, 0,mavlink_heartbeat_t,custom_mode,0,type,6,autopilot,8,base_mode,0,system_status,0,mavlink_version,3,,Len,17
2014-11-13T11:38:41.180,FE,19,16, 1, 1,16,mavlink_param_value_t,param_value,-1,param_count,247,param_index,169,param_id,RNGFND_STOP_PIN,param_type,2,,Len,33
2014-11-13T11:38:41.196,FE,1C,17, 1, 1,1E,mavlink_attitude_t,time_boot_ms,41973,roll,-0.108818,pitch,0.1693871,yaw,1.034355,rollspeed,-0.00838796,pitchspeed,-0.05930435,yawspeed,0.01288417,,Len,36
2014-11-13T11:38:41.228,FE,19,18, 1, 1,16,mavlink_param_value_t,param_value,0,param_count,247,param_index,170,param_id,RNGFND_SETTLE_MS,param_type,4,,Len,33
2014-11-13T11:38:41.230,FE,19,19, 1, 1,16,mavlink_param_value_t,param_value,1,param_count,247,param_index,171,param_id,RNGFND_RMETRIC,param_type,2,,Len,33
2014-11-13T11:38:41.244,FE,19,1A, 1, 1,16,mavlink_param_value_t,param_value,0,param_count,247,param_index,172,param_id,RNGFND2_TYPE,param_type,2,,Len,33
2014-11-13T11:38:41.272,FE,1C,1B, 1, 1,21,mavlink_global_position_int_t,time_boot_ms,42015,lat,0,lon,0,alt,-17000,relative_alt,790,vx,0,vy,0,vz,0,hdg,5932,,Len,36
2014-11-13T11:38:41.272,FE,14,1C, 1, 1,4A,mavlink_vfr_hud_t,airspeed,0,groundspeed,0,alt,0.79,climb,0,heading,59,throttle,16,,Len,28
2014-11-13T11:38:41.273,FE,19,1D, 1, 1,16,mavlink_param_value_t,param_value,-1,param_count,247,param_index,173,param_id,RNGFND2_PIN,param_type,2,,Len,33
2014-11-13T11:38:41.288,FE, 9,87,33,44,A6,mavlink_radio_t,rxerrors,7,fixed,21,rssi,176,remrssi,183,txbuf,100,noise,42,remnoise,20,,Len,17
2014-11-13T11:38:41.288,FE, 9,87,33,44,6D,mavlink_radio_status_t,rxerrors,7,fixed,21,rssi,176,remrssi,183,txbuf,100,noise,42,remnoise,20,,Len,17
2014-11-13T11:38:41.376,FE,19,1E, 1, 1,16,mavlink_param_value_t,param_value,3,param_count,247,param_index,174,param_id,RNGFND2_SCALING,param_type,9,,Len,33
2014-11-13T11:38:41.378,FE,19,1F, 1, 1,16,mavlink_param_value_t,param_value,0,param_count,247,param_index,175,param_id,RNGFND2_OFFSET,param_type,9,,Len,33
2014-11-13T11:38:41.379,FE,19,20, 1, 1,16,mavlink_param_value_t,param_value,0,param_count,247,param_index,176,param_id,RNGFND2_FUNCTION,param_type,2,,Len,33
2014-11-13T11:38:41.381,FE,19,21, 1, 1,16,mavlink_param_value_t,param_value,20,param_count,247,param_index,177,param_id,RNGFND2_MIN_CM,param_type,4,,Len,33
2014-11-13T11:38:41.382,FE,19,22, 1, 1,16,mavlink_param_value_t,param_value,700,param_count,247,param_index,178,param_id,RNGFND2_MAX_CM,param_type,4,,Len,33
2014-11-13T11:38:41.440,FE,19,23, 1, 1,16,mavlink_param_value_t,param_value,-1,param_count,247,param_index,179,param_id,RNGFND2_STOP_PIN,param_type,2,,Len,33
2014-11-13T11:38:41.456,FE,19,24, 1, 1,16,mavlink_param_value_t,param_value,0,param_count,247,param_index,180,param_id,RNGFND2_SETTLE_M,param_type,4,,Len,33
2014-11-13T11:38:41.483,FE,19,25, 1, 1,16,mavlink_param_value_t,param_value,1,param_count,247,param_index,181,param_id,RNGFND2_RMETRIC,param_type,2,,Len,33
2014-11-13T11:38:41.485,FE,1C,26, 1, 1,1E,mavlink_attitude_t,time_boot_ms,42395,roll,-0.1091373,pitch,0.1655638,yaw,1.036916,rollspeed,0.001456072,pitchspeed,0.0008240538,yawspeed,-0.01106076,,Len,36
2014-11-13T11:38:41.669,FE,14,27, 1, 1,4A,mavlink_vfr_hud_t,airspeed,0,groundspeed,0,alt,0.78,climb,0,heading,59,throttle,16,,Len,28
2014-11-13T11:38:41.669,FE,19,28, 1, 1,16,mavlink_param_value_t,param_value,88,param_count,247,param_index,182,param_id,INS_PRODUCT_ID,param_type,4,,Len,33
2014-11-13T11:38:41.671,FE,19,29, 1, 1,16,mavlink_param_value_t,param_value,1,param_count,247,param_index,183,param_id,INS_ACCSCAL_X,param_type,9,,Len,33
2014-11-13T11:38:41.685,FE,19,2A, 1, 1,16,mavlink_param_value_t,param_value,1,param_count,247,param_index,184,param_id,INS_ACCSCAL_Y,param_type,9,,Len,33
2014-11-13T11:38:41.686,FE,19,2B, 1, 1,16,mavlink_param_value_t,param_value,1,param_count,247,param_index,185,param_id,INS_ACCSCAL_Z,param_type,9,,Len,33
