2014-11-13T12:34:46.699,FE, 9,D7,FF,BE, 0,mavlink_heartbeat_t,custom_mode,0,type,6,autopilot,8,base_mode,0,system_status,0,mavlink_version,3,,Len,17
2014-11-13T12:34:46.702,FE,14,1D, 1, 1,4A,mavlink_vfr_hud_t,airspeed,0,groundspeed,0,alt,2.08,climb,0,heading,55,throttle,16,,Len,28
2014-11-13T12:34:46.703,FE,1C,1E, 1, 1,1E,mavlink_attitude_t,time_boot_ms,346221,roll,-0.09005552,pitch,0.06392277,yaw,0.9632847,rollspeed,3.977923E-05,pitchspeed,-0.0005575519,yawspeed,0.0002561602,,Len,36
2014-11-13T12:34:46.704,FE,1F,1F, 1, 1, 1,mavlink_sys_status_t,onboard_control_sensors_present,2153511,onboard_control_sensors_enabled,2097191,onboard_control_sensors_health,2153479,load,381,voltage_battery,0,current_battery,-1,drop_rate_comm,0,errors_comm,0,errors_count1,0,errors_count2,0,errors_count3,0,errors_count4,0,battery_remaining,255,,Len,39
2014-11-13T12:34:46.704,FE, 4,20, 1, 1,98,mavlink_meminfo_t,brkval,6112,freemem,2048,,Len,12
2014-11-13T12:34:46.704,FE, 2,21, 1, 1,2A,mavlink_mission_current_t,seq,0,,Len,10
2014-11-13T12:34:46.704,FE,1E,22, 1, 1,18,mavlink_gps_raw_int_t,time_usec,0,lat,0,lon,0,alt,-17000,eph,9999,epv,65535,vel,0,cog,0,fix_type,1,satellites_visible,0,,Len,38
2014-11-13T12:34:46.705,FE,1C,23, 1, 1,21,mavlink_global_position_int_t,time_boot_ms,346243,lat,0,lon,0,alt,-17000,relative_alt,2080,vx,0,vy,0,vz,0,hdg,5519,,Len,36
2014-11-13T12:34:46.705,FE,1A,24, 1, 1,1B,mavlink_raw_imu_t,time_usec,346264437,xacc,61,yacc,85,zacc,-957,xgyro,0,ygyro,-1,zgyro,0,xmag,93,ymag,-158,zmag,119,,Len,34
2014-11-13T12:34:46.705,FE, 9,25, 1, 1, 0,mavlink_heartbeat_t,custom_mode,0,type,10,autopilot,3,base_mode,193,system_status,4,mavlink_version,3,,Len,17
2014-11-13T12:34:46.707,FE,15,26, 1, 1,24,mavlink_servo_output_raw_t,time_usec,346285224,servo1_raw,1460,servo2_raw,1499,servo3_raw,1515,servo4_raw,1498,servo5_raw,1553,servo6_raw,1499,servo7_raw,967,servo8_raw,2073,port,0,,Len,29
2014-11-13T12:34:46.707,FE,16,27, 1, 1,23,mavlink_rc_channels_raw_t,time_boot_ms,346285,chan1_raw,1460,chan2_raw,1499,chan3_raw,1515,chan4_raw,1499,chan5_raw,1554,chan6_raw,1499,chan7_raw,966,chan8_raw,2073,port,0,rssi,0,,Len,30
2014-11-13T12:34:46.708,FE,14,28, 1, 1,4A,mavlink_vfr_hud_t,airspeed,0,groundspeed,0,alt,2.14,climb,0,heading,55,throttle,16,,Len,28
2014-11-13T12:34:46.708,FE,1C,29, 1, 1,1E,mavlink_attitude_t,time_boot_ms,346341,roll,-0.0900295,pitch,0.06395146,yaw,0.9633538,rollspeed,3.977923E-05,pitchspeed,-2.544257E-05,yawspeed,0.0005222148,,Len,36
2014-11-13T12:34:46.708,FE,14,2A, 1, 1,4A,mavlink_vfr_hud_t,airspeed,0,groundspeed,0,alt,2.06,climb,0,heading,55,throttle,16,,Len,28
2014-11-13T12:34:46.709,FE,1C,2B, 1, 1,1E,mavlink_attitude_t,time_boot_ms,346464,roll,-0.09000586,pitch,0.06392729,yaw,0.9633974,rollspeed,3.977923E-05,pitchspeed,0.0002406139,yawspeed,0.0002561602,,Len,36
2014-11-13T12:34:46.709,FE,14,2C, 1, 1,4A,mavlink_vfr_hud_t,airspeed,0,groundspeed,0,alt,2.1,climb,0,heading,55,throttle,16,,Len,28
2014-11-13T12:34:46.709,FE,1C,2D, 1, 1,A3,mavlink_ahrs_t,omegaIx,-0.0009180227,omegaIy,0.001052086,omegaIz,-0.0001163167,accel_weight,0,renorm_val,0,error_rp,0.0009089826,error_yaw,0.001722086,,Len,36
2014-11-13T12:34:46.710,FE, 3,2E, 1, 1,A5,mavlink_hwstatus_t,Vcc,4940,I2Cerr,0,,Len,11
2014-11-13T12:34:46.710,FE, C,2F, 1, 1, 2,mavlink_system_time_t,time_unix_usec,0,time_boot_ms,346543,,Len,20
2014-11-13T12:34:46.710,FE,1C,30, 1, 1,21,mavlink_global_position_int_t,time_boot_ms,346583,lat,0,lon,0,alt,-17000,relative_alt,2170,vx,0,vy,0,vz,0,hdg,5520,,Len,36
2014-11-13T12:34:46.711,FE,1C,31, 1, 1,1E,mavlink_attitude_t,time_boot_ms,346583,roll,-0.08995835,pitch,0.06385797,yaw,0.9634586,rollspeed,3.977923E-05,pitchspeed,-0.0008236046,yawspeed,0.0007882694,,Len,36
2014-11-13T12:34:46.711,FE,14,32, 1, 1,4A,mavlink_vfr_hud_t,airspeed,0,groundspeed,0,alt,2.17,climb,0,heading,55,throttle,16,,Len,28
2014-11-13T12:34:46.711,FE,1C,33, 1, 1,1E,mavlink_attitude_t,time_boot_ms,346704,roll,-0.08994731,pitch,0.0638829,yaw,0.9635203,rollspeed,3.977923E-05,pitchspeed,0.0002406139,yawspeed,0.0002561602,,Len,36
2014-11-13T12:34:46.712,FE,1F,34, 1, 1, 1,mavlink_sys_status_t,onboard_control_sensors_present,2153511,onboard_control_sensors_enabled,2097191,onboard_control_sensors_health,2153479,load,388,voltage_battery,0,current_battery,-1,drop_rate_comm,0,errors_comm,0,errors_count1,0,errors_count2,0,errors_count3,0,errors_count4,0,battery_remaining,255,,Len,39
2014-11-13T12:34:46.712,FE, 4,35, 1, 1,98,mavlink_meminfo_t,brkval,6112,freemem,2048,,Len,12
2014-11-13T12:34:46.712,FE, 2,36, 1, 1,2A,mavlink_mission_current_t,seq,0,,Len,10
2014-11-13T12:34:46.712,FE,1E,37, 1, 1,18,mavlink_gps_raw_int_t,time_usec,0,lat,0,lon,0,alt,-17000,eph,9999,epv,65535,vel,0,cog,0,fix_type,1,satellites_visible,0,,Len,38
2014-11-13T12:34:46.713,FE,14,38, 1, 1,4A,mavlink_vfr_hud_t,airspeed,0,groundspeed,0,alt,2.04,climb,0,heading,55,throttle,16,,Len,28
2014-11-13T12:34:46.713,FE,1A,39, 1, 1,1B,mavlink_raw_imu_t,time_usec,346783572,xacc,61,yacc,86,zacc,-958,xgyro,0,ygyro,-1,zgyro,0,xmag,93,ymag,-158,zmag,119,,Len,34
2014-11-13T12:34:46.713,FE,15,3A, 1, 1,24,mavlink_servo_output_raw_t,time_usec,346802787,servo1_raw,1460,servo2_raw,1499,servo3_raw,1515,servo4_raw,1498,servo5_raw,1553,servo6_raw,1499,servo7_raw,967,servo8_raw,2073,port,0,,Len,29
2014-11-13T12:34:46.713,FE,16,3B, 1, 1,23,mavlink_rc_channels_raw_t,time_boot_ms,346802,chan1_raw,1460,chan2_raw,1499,chan3_raw,1515,chan4_raw,1499,chan5_raw,1554,chan6_raw,1499,chan7_raw,966,chan8_raw,2073,port,0,rssi,0,,Len,30
2014-11-13T12:34:46.714,FE,1C,3C, 1, 1,1E,mavlink_attitude_t,time_boot_ms,346822,roll,-0.0899581,pitch,0.0638399,yaw,0.9635119,rollspeed,4.411972E-05,pitchspeed,-0.0005499321,yawspeed,0.0002157233,,Len,36
2014-11-13T12:34:46.714,FE,14,3D, 1, 1,4A,mavlink_vfr_hud_t,airspeed,0,groundspeed,0,alt,2.07,climb,0,heading,55,throttle,16,,Len,28
2014-11-13T12:34:46.714,FE,1C,3E, 1, 1,21,mavlink_global_position_int_t,time_boot_ms,346922,lat,0,lon,0,alt,-17000,relative_alt,2070,vx,0,vy,0,vz,0,hdg,5520,,Len,36
2014-11-13T12:34:46.714,FE,1C,3F, 1, 1,1E,mavlink_attitude_t,time_boot_ms,346944,roll,-0.08994214,pitch,0.06386147,yaw,0.9635271,rollspeed,4.411972E-05,pitchspeed,0.0002482337,yawspeed,0.0002157233,,Len,36
2014-11-13T12:34:46.714,FE,14,40, 1, 1,4A,mavlink_vfr_hud_t,airspeed,0,groundspeed,0,alt,1.99,climb,0,heading,55,throttle,16,,Len,28
2014-11-13T12:34:46.715,FE,1C,41, 1, 1,1E,mavlink_attitude_t,time_boot_ms,347065,roll,-0.08994228,pitch,0.06381094,yaw,0.9635068,rollspeed,4.411972E-05,pitchspeed,-0.0008159849,yawspeed,0.0002157233,,Len,36
2014-11-13T12:34:46.715,FE,1C,42, 1, 1,A3,mavlink_ahrs_t,omegaIx,-0.0009136822,omegaIy,0.001059706,omegaIz,-0.0001567535,accel_weight,0,renorm_val,0,error_rp,0.0005594641,error_yaw,0.001851039,,Len,36
2014-11-13T12:34:46.715,FE, 3,43, 1, 1,A5,mavlink_hwstatus_t,Vcc,4940,I2Cerr,0,,Len,11
2014-11-13T12:34:46.716,FE, C,44, 1, 1, 2,mavlink_system_time_t,time_unix_usec,0,time_boot_ms,347066,,Len,20
2014-11-13T12:34:46.716,FE,14,45, 1, 1,4A,mavlink_vfr_hud_t,airspeed,0,groundspeed,0,alt,2.06,climb,0,heading,55,throttle,16,,Len,28
2014-11-13T12:34:46.728,FE,1C,46, 1, 1,1E,mavlink_attitude_t,time_boot_ms,347183,roll,-0.09001292,pitch,0.06382642,yaw,0.9634755,rollspeed,-0.001020099,pitchspeed,0.0002482337,yawspeed,0.0002157233,,Len,36
2014-11-13T12:34:46.775,FE,14,47, 1, 1,4A,mavlink_vfr_hud_t,airspeed,0,groundspeed,0,alt,1.98,climb,0,heading,55,throttle,16,,Len,28
2014-11-13T12:34:46.807,FE,1C,48, 1, 1,21,mavlink_global_position_int_t,time_boot_ms,347265,lat,0,lon,0,alt,-17000,relative_alt,2030,vx,0,vy,0,vz,0,hdg,5520,,Len,36
2014-11-13T12:34:46.808,FE, 9,49, 1, 1, 0,mavlink_heartbeat_t,custom_mode,0,type,10,autopilot,3,base_mode,193,system_status,4,mavlink_version,3,,Len,17
2014-11-13T12:34:46.810,FE, 2,D8,FF,BE,15,mavlink_param_request_list_t,target_system,1,target_component,1,,Len,10
2014-11-13T12:34:46.853,FE,1F,4A, 1, 1, 1,mavlink_sys_status_t,onboard_control_sensors_present,2153511,onboard_control_sensors_enabled,2097191,onboard_control_sensors_health,2153479,load,386,voltage_battery,0,current_battery,-1,drop_rate_comm,0,errors_comm,0,errors_count1,0,errors_count2,0,errors_count3,0,errors_count4,0,battery_remaining,255,,Len,39
2014-11-13T12:34:46.853,FE, 4,4B, 1, 1,98,mavlink_meminfo_t,brkval,6112,freemem,2048,,Len,12
2014-11-13T12:34:46.854,FE, 2,4C, 1, 1,2A,mavlink_mission_current_t,seq,0,,Len,10
2014-11-13T12:34:46.854,FE,1E,4D, 1, 1,18,mavlink_gps_raw_int_t,time_usec,0,lat,0,lon,0,alt,-17000,eph,9999,epv,65535,vel,0,cog,0,fix_type,1,satellites_visible,0,,Len,38
2014-11-13T12:34:46.867,FE,1A,4E, 1, 1,1B,mavlink_raw_imu_t,time_usec,347305103,xacc,62,yacc,86,zacc,-958,xgyro,0,ygyro,0,zgyro,0,xmag,93,ymag,-157,zmag,120,,Len,34
2014-11-13T12:34:46.883,FE,1C,4F, 1, 1,1E,mavlink_attitude_t,time_boot_ms,347305,roll,-0.09001308,pitch,0.0637931,yaw,0.9635144,rollspeed,4.411972E-05,pitchspeed,0.0002482337,yawspeed,0.0002157233,,Len,36
2014-11-13T12:34:46.883,FE,15,50, 1, 1,24,mavlink_servo_output_raw_t,time_usec,347325186,servo1_raw,1460,servo2_raw,1499,servo3_raw,1516,servo4_raw,1498,servo5_raw,1553,servo6_raw,1499,servo7_raw,967,servo8_raw,2073,port,0,,Len,29
2014-11-13T12:34:46.899,FE, 9,3A,33,44,A6,mavlink_radio_t,rxerrors,1,fixed,0,rssi,171,remrssi,178,txbuf,100,noise,39,remnoise,19,,Len,17
2014-11-13T12:34:46.899,FE, 9,3A,33,44,6D,mavlink_radio_status_t,rxerrors,1,fixed,0,rssi,171,remrssi,178,txbuf,100,noise,39,remnoise,19,,Len,17
2014-11-13T12:34:46.948,FE,16,51, 1, 1,23,mavlink_rc_channels_raw_t,time_boot_ms,347325,chan1_raw,1460,chan2_raw,1499,chan3_raw,1516,chan4_raw,1499,chan5_raw,1553,chan6_raw,1499,chan7_raw,967,chan8_raw,2072,port,0,rssi,0,,Len,30
2014-11-13T12:34:46.949,FE,14,52, 1, 1,4A,mavlink_vfr_hud_t,airspeed,0,groundspeed,0,alt,2.1,climb,0,heading,55,throttle,16,,Len,28
2014-11-13T12:34:46.991,FE,33,53, 1, 1,FD,mavlink_statustext_t,severity,1,text,ArduRover v2.46 (5ca3c4ba),,Len,59
2014-11-13T12:34:46.991,FE,1C,54, 1, 1,1E,mavlink_attitude_t,time_boot_ms,347424,roll,-0.09000643,pitch,0.06380478,yaw,0.9634945,rollspeed,4.411972E-05,pitchspeed,0.0002482337,yawspeed,0.0002157233,,Len,36
2014-11-13T12:34:47.002,FE, 9,D9,FF,BE, 0,mavlink_heartbeat_t,custom_mode,0,type,6,autopilot,8,base_mode,0,system_status,0,mavlink_version,3,,Len,17
2014-11-13T12:34:47.081,FE,14,55, 1, 1,4A,mavlink_vfr_hud_t,airspeed,0,groundspeed,0,alt,2.06,climb,0,heading,55,throttle,16,,Len,28
2014-11-13T12:34:47.081,FE,19,56, 1, 1,16,mavlink_param_value_t,param_value,16,param_count,247,param_index,0,param_id,FORMAT_VERSION,param_type,4,,Len,33
2014-11-13T12:34:47.083,FE,19,57, 1, 1,16,mavlink_param_value_t,param_value,20,param_count,247,param_index,1,param_id,SYSID_SW_TYPE,param_type,2,,Len,33
2014-11-13T12:34:47.085,FE,19,58, 1, 1,16,mavlink_param_value_t,param_value,16254,param_count,247,param_index,2,param_id,LOG_BITMASK,param_type,6,,Len,33
2014-11-13T12:34:47.095,FE, 9,3B,33,44,A6,mavlink_radio_t,rxerrors,1,fixed,0,rssi,171,remrssi,178,txbuf,100,noise,39,remnoise,19,,Len,17
2014-11-13T12:34:47.095,FE, 9,3B,33,44,6D,mavlink_radio_status_t,rxerrors,1,fixed,0,rssi,171,remrssi,178,txbuf,100,noise,39,remnoise,19,,Len,17
2014-11-13T12:34:47.144,FE,1C,59, 1, 1,A3,mavlink_ahrs_t,omegaIx,-0.0009136822,omegaIy,0.001059706,omegaIz,-0.0001567535,accel_weight,0,renorm_val,0,error_rp,0.0003817946,error_yaw,0.00252034,,Len,36
2014-11-13T12:34:47.144,FE, 3,5A, 1, 1,A5,mavlink_hwstatus_t,Vcc,4918,I2Cerr,0,,Len,11
2014-11-13T12:34:47.176,FE, C,5B, 1, 1, 2,mavlink_system_time_t,time_unix_usec,0,time_boot_ms,347585,,Len,20
2014-11-13T12:34:47.177,FE,1C,5C, 1, 1,21,mavlink_global_position_int_t,time_boot_ms,347605,lat,0,lon,0,alt,-17000,relative_alt,2070,vx,0,vy,0,vz,0,hdg,5520,,Len,36
2014-11-13T12:34:47.192,FE,19,5D, 1, 1,16,mavlink_param_value_t,param_value,43,param_count,247,param_index,3,param_id,SYS_NUM_RESETS,param_type,4,,Len,33
2014-11-13T12:34:47.208,FE,19,5E, 1, 1,16,mavlink_param_value_t,param_value,0,param_count,247,param_index,4,param_id,RST_SWITCH_CH,param_type,2,,Len,33
2014-11-13T12:34:47.210,FE,19,5F, 1, 1,16,mavlink_param_value_t,param_value,0,param_count,247,param_index,5,param_id,INITIAL_MODE,param_type,2,,Len,33
2014-11-13T12:34:47.382,FE,19,60, 1, 1,16,mavlink_param_value_t,param_value,-1,param_count,247,param_index,6,param_id,RSSI_PIN,param_type,2,,Len,33
2014-11-13T12:34:47.384,FE,19,61, 1, 1,16,mavlink_param_value_t,param_value,1,param_count,247,param_index,7,param_id,SYSID_THISMAV,param_type,4,,Len,33
2014-11-13T12:34:47.505,FE,19,62, 1, 1,16,mavlink_param_value_t,param_value,255,param_count,247,param_index,8,param_id,SYSID_MYGCS,param_type,4,,Len,33
2014-11-13T12:34:47.507,FE,1F,63, 1, 1, 1,mavlink_sys_status_t,onboard_control_sensors_present,2153511,onboard_control_sensors_enabled,2097191,onboard_control_sensors_health,2153479,load,392,voltage_battery,0,current_battery,-1,drop_rate_comm,0,errors_comm,0,errors_count1,0,errors_count2,0,errors_count3,0,errors_count4,0,battery_remaining,255,,Len,39
2014-11-13T12:34:47.508,FE, 4,64, 1, 1,98,mavlink_meminfo_t,brkval,6112,freemem,2048,,Len,12
2014-11-13T12:34:47.508,FE, 2,65, 1, 1,2A,mavlink_mission_current_t,seq,0,,Len,10
2014-11-13T12:34:47.521,FE,1E,66, 1, 1,18,mavlink_gps_raw_int_t,time_usec,0,lat,0,lon,0,alt,-17000,eph,9999,epv,65535,vel,0,cog,0,fix_type,1,satellites_visible,0,,Len,38
2014-11-13T12:34:47.537,FE,1A,67, 1, 1,1B,mavlink_raw_imu_t,time_usec,347826010,xacc,61,yacc,85,zacc,-958,xgyro,0,ygyro,0,zgyro,0,xmag,94,ymag,-158,zmag,120,,Len,34
2014-11-13T12:34:47.537,FE,15,68, 1, 1,24,mavlink_servo_output_raw_t,time_usec,347844499,servo1_raw,1460,servo2_raw,1499,servo3_raw,1515,servo4_raw,1498,servo5_raw,1553,servo6_raw,1499,servo7_raw,967,servo8_raw,2073,port,0,,Len,29
2014-11-13T12:34:47.553,FE,16,69, 1, 1,23,mavlink_rc_channels_raw_t,time_boot_ms,347844,chan1_raw,1460,chan2_raw,1499,chan3_raw,1515,chan4_raw,1499,chan5_raw,1554,chan6_raw,1499,chan7_raw,966,chan8_raw,2073,port,0,rssi,0,,Len,30
2014-11-13T12:34:47.569,FE,1C,6A, 1, 1,1E,mavlink_attitude_t,time_boot_ms,347844,roll,-0.09002203,pitch,0.0637724,yaw,0.9634475,rollspeed,4.411972E-05,pitchspeed,-1.782284E-05,yawspeed,0.0002157233,,Len,36
2014-11-13T12:34:47.569,FE,19,6B, 1, 1,16,mavlink_param_value_t,param_value,115,param_count,247,param_index,9,param_id,SERIAL0_BAUD,param_type,4,,Len,33
2014-11-13T12:34:47.601,FE,19,6C, 1, 1,16,mavlink_param_value_t,param_value,57,param_count,247,param_index,10,param_id,SERIAL1_BAUD,param_type,4,,Len,33
2014-11-13T12:34:47.713,FE,19,6D, 1, 1,16,mavlink_param_value_t,param_value,0,param_count,247,param_index,11,param_id,TELEM_DELAY,param_type,2,,Len,33
2014-11-13T12:34:47.729,FE,14,6E, 1, 1,4A,mavlink_vfr_hud_t,airspeed,0,groundspeed,0,alt,2.08,climb,0,heading,55,throttle,16,,Len,28
2014-11-13T12:34:47.729,FE,19,6F, 1, 1,16,mavlink_param_value_t,param_value,0,param_count,247,param_index,12,param_id,SKIP_GYRO_CAL,param_type,2,,Len,33
2014-11-13T12:34:47.771,FE,19,70, 1, 1,16,mavlink_param_value_t,param_value,1,param_count,247,param_index,13,param_id,MAG_ENABLE,param_type,2,,Len,33
2014-11-13T12:34:47.772,FE,19,71, 1, 1,16,mavlink_param_value_t,param_value,-1,param_count,247,param_index,14,param_id,AUTO_TRIGGER_PIN,param_type,2,,Len,33
2014-11-13T12:34:47.774,FE,19,72, 1, 1,16,mavlink_param_value_t,param_value,0,param_count,247,param_index,15,param_id,AUTO_KICKSTART,param_type,9,,Len,33
2014-11-13T12:34:47.799,FE,19,73, 1, 1,16,mavlink_param_value_t,param_value,5,param_count,247,param_index,16,param_id,CRUISE_SPEED,param_type,9,,Len,33
2014-11-13T12:34:47.801,FE,19,74, 1, 1,16,mavlink_param_value_t,param_value,50,param_count,247,param_index,17,param_id,SPEED_TURN_GAIN,param_type,2,,Len,33
2014-11-13T12:34:47.803,FE,19,75, 1, 1,16,mavlink_param_value_t,param_value,2,param_count,247,param_index,18,param_id,SPEED_TURN_DIST,param_type,9,,Len,33
2014-11-13T12:34:47.831,FE,19,76, 1, 1,16,mavlink_param_value_t,param_value,0,param_count,247,param_index,19,param_id,BRAKING_PERCENT,param_type,2,,Len,33
2014-11-13T12:34:47.847,FE,19,77, 1, 1,16,mavlink_param_value_t,param_value,3,param_count,247,param_index,20,param_id,BRAKING_SPEEDERR,param_type,9,,Len,33
2014-11-13T12:34:47.943,FE,1C,78, 1, 1,1E,mavlink_attitude_t,time_boot_ms,348268,roll,-0.08998445,pitch,0.06376997,yaw,0.9634416,rollspeed,-0.0002219349,pitchspeed,-0.0008159849,yawspeed,0.0002157233,,Len,36
2014-11-13T12:34:47.959,FE, 9,79, 1, 1, 0,mavlink_heartbeat_t,custom_mode,0,type,10,autopilot,3,base_mode,193,system_status,4,mavlink_version,3,,Len,17
2014-11-13T12:34:47.959,FE,14,7A, 1, 1,4A,mavlink_vfr_hud_t,airspeed,0,groundspeed,0,alt,2.1,climb,0,heading,55,throttle,16,,Len,28
2014-11-13T12:34:48.008,FE,19,7B, 1, 1,16,mavlink_param_value_t,param_value,30,param_count,247,param_index,21,param_id,PIVOT_TURN_ANGLE,param_type,4,,Len,33
2014-11-13T12:34:48.010,FE,19,7C, 1, 1,16,mavlink_param_value_t,param_value,1,param_count,247,param_index,22,param_id,CH7_OPTION,param_type,2,,Len,33
2014-11-13T12:34:48.011,FE,19,7D, 1, 1,16,mavlink_param_value_t,param_value,1091,param_count,247,param_index,23,param_id,RC1_MIN,param_type,4,,Len,33
2014-11-13T12:34:48.012,FE, 9,DA,FF,BE, 0,mavlink_heartbeat_t,custom_mode,0,type,6,autopilot,8,base_mode,0,system_status,0,mavlink_version,3,,Len,17
2014-11-13T12:34:48.013,FE,19,7E, 1, 1,16,mavlink_param_value_t,param_value,1426,param_count,247,param_index,24,param_id,RC1_TRIM,param_type,4,,Len,33
2014-11-13T12:34:48.015,FE,19,7F, 1, 1,16,mavlink_param_value_t,param_value,1919,param_count,247,param_index,25,param_id,RC1_MAX,param_type,4,,Len,33
2014-11-13T12:34:48.023,FE,19,80, 1, 1,16,mavlink_param_value_t,param_value,-1,param_count,247,param_index,26,param_id,RC1_REV,param_type,2,,Len,33
2014-11-13T12:34:48.039,FE, 9,3C,33,44,A6,mavlink_radio_t,rxerrors,1,fixed,0,rssi,171,remrssi,178,txbuf,100,noise,44,remnoise,23,,Len,17
2014-11-13T12:34:48.039,FE, 9,3C,33,44,6D,mavlink_radio_status_t,rxerrors,1,fixed,0,rssi,171,remrssi,178,txbuf,100,noise,44,remnoise,23,,Len,17
2014-11-13T12:34:48.196,FE,19,81, 1, 1,16,mavlink_param_value_t,param_value,30,param_count,247,param_index,27,param_id,RC1_DZ,param_type,4,,Len,33
2014-11-13T12:34:48.198,FE,19,82, 1, 1,16,mavlink_param_value_t,param_value,1498,param_count,247,param_index,28,param_id,RC2_MIN,param_type,4,,Len,33
2014-11-13T12:34:48.199,FE,19,83, 1, 1,16,mavlink_param_value_t,param_value,1499,param_count,247,param_index,29,param_id,RC2_TRIM,param_type,4,,Len,33
2014-11-13T12:34:48.228,FE,1C,84, 1, 1,1E,mavlink_attitude_t,time_boot_ms,348687,roll,-0.08994738,pitch,0.06362255,yaw,0.963437,rollspeed,4.411972E-05,pitchspeed,-0.0005499321,yawspeed,0.0002157233,,Len,36
2014-11-13T12:34:48.244,FE,19,85, 1, 1,16,mavlink_param_value_t,param_value,1499,param_count,247,param_index,30,param_id,RC2_MAX,param_type,4,,Len,33
2014-11-13T12:34:48.260,FE,19,86, 1, 1,16,mavlink_param_value_t,param_value,1,param_count,247,param_index,31,param_id,RC2_REV,param_type,2,,Len,33
2014-11-13T12:34:48.292,FE,19,87, 1, 1,16,mavlink_param_value_t,param_value,0,param_count,247,param_index,32,param_id,RC2_DZ,param_type,4,,Len,33
2014-11-13T12:34:48.294,FE,14,88, 1, 1,4A,mavlink_vfr_hud_t,airspeed,0,groundspeed,0,alt,2.08,climb,0,heading,55,throttle,16,,Len,28
2014-11-13T12:34:48.430,FE,19,89, 1, 1,16,mavlink_param_value_t,param_value,0,param_count,247,param_index,33,param_id,RC2_FUNCTION,param_type,2,,Len,33
2014-11-13T12:34:48.438,FE,19,8A, 1, 1,16,mavlink_param_value_t,param_value,1224,param_count,247,param_index,34,param_id,RC3_MIN,param_type,4,,Len,33
2014-11-13T12:34:48.440,FE,19,8B, 1, 1,16,mavlink_param_value_t,param_value,1232,param_count,247,param_index,35,param_id,RC3_TRIM,param_type,4,,Len,33
2014-11-13T12:34:48.510,FE,19,8C, 1, 1,16,mavlink_param_value_t,param_value,1923,param_count,247,param_index,36,param_id,RC3_MAX,param_type,4,,Len,33
2014-11-13T12:34:48.638,FE,19,8D, 1, 1,16,mavlink_param_value_t,param_value,1,param_count,247,param_index,37,param_id,RC3_REV,param_type,2,,Len,33
2014-11-13T12:34:48.640,FE,19,8E, 1, 1,16,mavlink_param_value_t,param_value,30,param_count,247,param_index,38,param_id,RC3_DZ,param_type,4,,Len,33
2014-11-13T12:34:48.766,FE,1C,8F, 1, 1,21,mavlink_global_position_int_t,time_boot_ms,348947,lat,0,lon,0,alt,-17000,relative_alt,2120,vx,0,vy,0,vz,0,hdg,5520,,Len,36
2014-11-13T12:34:48.766,FE,19,90, 1, 1,16,mavlink_param_value_t,param_value,1498,param_count,247,param_index,39,param_id,RC4_MIN,param_type,4,,Len,33
2014-11-13T12:34:48.808,FE,19,91, 1, 1,16,mavlink_param_value_t,param_value,1499,param_count,247,param_index,40,param_id,RC4_TRIM,param_type,4,,Len,33
2014-11-13T12:34:48.810,FE,19,92, 1, 1,16,mavlink_param_value_t,param_value,1499,param_count,247,param_index,41,param_id,RC4_MAX,param_type,4,,Len,33
2014-11-13T12:34:48.811,FE,1C,93, 1, 1,1E,mavlink_attitude_t,time_boot_ms,349107,roll,-0.0899211,pitch,0.06358339,yaw,0.9634383,rollspeed,4.411972E-05,pitchspeed,0.0002482337,yawspeed,0.0002157233,,Len,36
2014-11-13T12:34:48.834,FE,14,94, 1, 1,4A,mavlink_vfr_hud_t,airspeed,0,groundspeed,0,alt,2.03,climb,0,heading,55,throttle,16,,Len,28
2014-11-13T12:34:48.834,FE,19,95, 1, 1,16,mavlink_param_value_t,param_value,1,param_count,247,param_index,42,param_id,RC4_REV,param_type,2,,Len,33
2014-11-13T12:34:48.836,FE,19,96, 1, 1,16,mavlink_param_value_t,param_value,0,param_count,247,param_index,43,param_id,RC4_DZ,param_type,4,,Len,33
2014-11-13T12:34:48.880,FE,19,97, 1, 1,16,mavlink_param_value_t,param_value,0,param_count,247,param_index,44,param_id,RC4_FUNCTION,param_type,2,,Len,33
2014-11-13T12:34:48.882,FE, 9,98, 1, 1, 0,mavlink_heartbeat_t,custom_mode,0,type,10,autopilot,3,base_mode,193,system_status,4,mavlink_version,3,,Len,17
2014-11-13T12:34:48.883,FE,19,99, 1, 1,16,mavlink_param_value_t,param_value,1553,param_count,247,param_index,45,param_id,RC5_MIN,param_type,4,,Len,33
2014-11-13T12:34:48.976,FE,19,9A, 1, 1,16,mavlink_param_value_t,param_value,1553,param_count,247,param_index,46,param_id,RC5_TRIM,param_type,4,,Len,33
2014-11-13T12:34:49.022,FE, 9,DB,FF,BE, 0,mavlink_heartbeat_t,custom_mode,0,type,6,autopilot,8,base_mode,0,system_status,0,mavlink_version,3,,Len,17
2014-11-13T12:34:49.115,FE,19,9B, 1, 1,16,mavlink_param_value_t,param_value,1554,param_count,247,param_index,47,param_id,RC5_MAX,param_type,4,,Len,33
2014-11-13T12:34:49.117,FE,19,9C, 1, 1,16,mavlink_param_value_t,param_value,1,param_count,247,param_index,48,param_id,RC5_REV,param_type,2,,Len,33
2014-11-13T12:34:49.118,FE,19,9D, 1, 1,16,mavlink_param_value_t,param_value,0,param_count,247,param_index,49,param_id,RC5_DZ,param_type,4,,Len,33
2014-11-13T12:34:49.130,FE,19,9E, 1, 1,16,mavlink_param_value_t,param_value,0,param_count,247,param_index,50,param_id,RC5_FUNCTION,param_type,2,,Len,33
2014-11-13T12:34:49.135,FE,1C,9F, 1, 1,1E,mavlink_attitude_t,time_boot_ms,349526,roll,-0.08984058,pitch,0.06356369,yaw,0.9635444,rollspeed,0.001108338,pitchspeed,-0.0008159849,yawspeed,0.000481778,,Len,36
2014-11-13T12:34:49.151,FE,19,A0, 1, 1,16,mavlink_param_value_t,param_value,1498,param_count,247,param_index,51,param_id,RC6_MIN,param_type,4,,Len,33
2014-11-13T12:34:49.178,FE,19,A1, 1, 1,16,mavlink_param_value_t,param_value,1499,param_count,247,param_index,52,param_id,RC6_TRIM,param_type,4,,Len,33
2014-11-13T12:34:49.180,FE,19,A2, 1, 1,16,mavlink_param_value_t,param_value,1499,param_count,247,param_index,53,param_id,RC6_MAX,param_type,4,,Len,33
2014-11-13T12:34:49.181,FE,14,A3, 1, 1,4A,mavlink_vfr_hud_t,airspeed,0,groundspeed,0,alt,2.05,climb,0,heading,55,throttle,16,,Len,28
2014-11-13T12:34:49.194,FE, 9,3D,33,44,A6,mavlink_radio_t,rxerrors,1,fixed,0,rssi,171,remrssi,178,txbuf,100,noise,43,remnoise,20,,Len,17
2014-11-13T12:34:49.194,FE, 9,3D,33,44,6D,mavlink_radio_status_t,rxerrors,1,fixed,0,rssi,171,remrssi,178,txbuf,100,noise,43,remnoise,20,,Len,17
2014-11-13T12:34:49.226,FE,1C,A4, 1, 1,A3,mavlink_ahrs_t,omegaIx,-0.0009136822,omegaIy,0.001059706,omegaIz,-0.0001567535,accel_weight,0,renorm_val,0,error_rp,0.0006520226,error_yaw,0.0009980078,,Len,36
2014-11-13T12:34:49.284,FE, 3,A5, 1, 1,A5,mavlink_hwstatus_t,Vcc,4897,I2Cerr,0,,Len,11
2014-11-13T12:34:49.284,FE, C,A6, 1, 1, 2,mavlink_system_time_t,time_unix_usec,0,time_boot_ms,349607,,Len,20
2014-11-13T12:34:49.285,FE,19,A7, 1, 1,16,mavlink_param_value_t,param_value,1,param_count,247,param_index,54,param_id,RC6_REV,param_type,2,,Len,33
2014-11-13T12:34:49.287,FE,19,A8, 1, 1,16,mavlink_param_value_t,param_value,0,param_count,247,param_index,55,param_id,RC6_DZ,param_type,4,,Len,33
2014-11-13T12:34:49.288,FE,19,A9, 1, 1,16,mavlink_param_value_t,param_value,0,param_count,247,param_index,56,param_id,RC6_FUNCTION,param_type,2,,Len,33
2014-11-13T12:34:49.316,FE,19,AA, 1, 1,16,mavlink_param_value_t,param_value,966,param_count,247,param_index,57,param_id,RC7_MIN,param_type,4,,Len,33
2014-11-13T12:34:49.332,FE,19,AB, 1, 1,16,mavlink_param_value_t,param_value,967,param_count,247,param_index,58,param_id,RC7_TRIM,param_type,4,,Len,33
2014-11-13T12:34:49.456,FE,19,AC, 1, 1,16,mavlink_param_value_t,param_value,2073,param_count,247,param_index,59,param_id,RC7_MAX,param_type,4,,Len,33
2014-11-13T12:34:49.458,FE,1F,AD, 1, 1, 1,mavlink_sys_status_t,onboard_control_sensors_present,2153511,onboard_control_sensors_enabled,2097191,onboard_control_sensors_health,2153479,load,396,voltage_battery,0,current_battery,-1,drop_rate_comm,0,errors_comm,0,errors_count1,0,errors_count2,0,errors_count3,0,errors_count4,0,battery_remaining,255,,Len,39
2014-11-13T12:34:49.472,FE, 4,AE, 1, 1,98,mavlink_meminfo_t,brkval,6112,freemem,2048,,Len,12
2014-11-13T12:34:49.472,FE, 2,AF, 1, 1,2A,mavlink_mission_current_t,seq,0,,Len,10
2014-11-13T12:34:49.475,FE,1E,B0, 1, 1,18,mavlink_gps_raw_int_t,time_usec,0,lat,0,lon,0,alt,-17000,eph,9999,epv,65535,vel,0,cog,0,fix_type,1,satellites_visible,0,,Len,38
2014-11-13T12:34:49.490,FE,1A,B1, 1, 1,1B,mavlink_raw_imu_t,time_usec,349847495,xacc,61,yacc,86,zacc,-957,xgyro,0,ygyro,-1,zgyro,0,xmag,94,ymag,-158,zmag,119,,Len,34
2014-11-13T12:34:49.503,FE,15,B2, 1, 1,24,mavlink_servo_output_raw_t,time_usec,349870262,servo1_raw,1460,servo2_raw,1499,servo3_raw,1516,servo4_raw,1498,servo5_raw,1553,servo6_raw,1499,servo7_raw,967,servo8_raw,2073,port,0,,Len,29
2014-11-13T12:34:49.519,FE,16,B3, 1, 1,23,mavlink_rc_channels_raw_t,time_boot_ms,349870,chan1_raw,1460,chan2_raw,1498,chan3_raw,1516,chan4_raw,1499,chan5_raw,1554,chan6_raw,1498,chan7_raw,967,chan8_raw,2074,port,0,rssi,0,,Len,30
2014-11-13T12:34:49.519,FE,19,B4, 1, 1,16,mavlink_param_value_t,param_value,1,param_count,247,param_index,60,param_id,RC7_REV,param_type,2,,Len,33
2014-11-13T12:34:49.564,FE,19,B5, 1, 1,16,mavlink_param_value_t,param_value,0,param_count,247,param_index,61,param_id,RC7_DZ,param_type,4,,Len,33
2014-11-13T12:34:49.566,FE,19,B6, 1, 1,16,mavlink_param_value_t,param_value,0,param_count,247,param_index,62,param_id,RC7_FUNCTION,param_type,2,,Len,33
2014-11-13T12:34:49.676,FE,1C,B7, 1, 1,1E,mavlink_attitude_t,time_boot_ms,349947,roll,-0.08983321,pitch,0.06364085,yaw,0.9635498,rollspeed,4.411972E-05,pitchspeed,0.0002482337,yawspeed,0.0002157233,,Len,36
2014-11-13T12:34:49.802,FE,14,B8, 1, 1,4A,mavlink_vfr_hud_t,airspeed,0,groundspeed,0,alt,2.13,climb,0,heading,55,throttle,16,,Len,28
2014-11-13T12:34:49.802,FE,19,B9, 1, 1,16,mavlink_param_value_t,param_value,966,param_count,247,param_index,63,param_id,RC8_MIN,param_type,4,,Len,33
2014-11-13T12:34:49.804,FE,19,BA, 1, 1,16,mavlink_param_value_t,param_value,2073,param_count,247,param_index,64,param_id,RC8_TRIM,param_type,4,,Len,33
2014-11-13T12:34:49.818,FE,19,BB, 1, 1,16,mavlink_param_value_t,param_value,2073,param_count,247,param_index,65,param_id,RC8_MAX,param_type,4,,Len,33
2014-11-13T12:34:49.834,FE,19,BC, 1, 1,16,mavlink_param_value_t,param_value,1,param_count,247,param_index,66,param_id,RC8_REV,param_type,2,,Len,33
2014-11-13T12:34:49.835,FE,19,BD, 1, 1,16,mavlink_param_value_t,param_value,0,param_count,247,param_index,67,param_id,RC8_DZ,param_type,4,,Len,33
2014-11-13T12:34:49.850,FE,19,BE, 1, 1,16,mavlink_param_value_t,param_value,0,param_count,247,param_index,68,param_id,RC8_FUNCTION,param_type,2,,Len,33
2014-11-13T12:34:49.866,FE,19,BF, 1, 1,16,mavlink_param_value_t,param_value,1100,param_count,247,param_index,69,param_id,RC10_MIN,param_type,4,,Len,33
2014-11-13T12:34:49.868,FE,19,C0, 1, 1,16,mavlink_param_value_t,param_value,1500,param_count,247,param_index,70,param_id,RC10_TRIM,param_type,4,,Len,33
2014-11-13T12:34:49.898,FE,19,C1, 1, 1,16,mavlink_param_value_t,param_value,1900,param_count,247,param_index,71,param_id,RC10_MAX,param_type,4,,Len,33
2014-11-13T12:34:49.900,FE, 9,C2, 1, 1, 0,mavlink_heartbeat_t,custom_mode,0,type,10,autopilot,3,base_mode,193,system_status,4,mavlink_version,3,,Len,17
2014-11-13T12:34:50.010,FE,1C,C3, 1, 1,21,mavlink_global_position_int_t,time_boot_ms,350289,lat,0,lon,0,alt,-17000,relative_alt,1940,vx,0,vy,0,vz,0,hdg,5520,,Len,36
2014-11-13T12:34:50.026,FE,1C,C4, 1, 1,1E,mavlink_attitude_t,time_boot_ms,350370,roll,-0.0898756,pitch,0.0636424,yaw,0.9635612,rollspeed,-0.0004879896,pitchspeed,-0.0002838756,yawspeed,0.0002157233,,Len,36
2014-11-13T12:34:50.032,FE, 9,DC,FF,BE, 0,mavlink_heartbeat_t,custom_mode,0,type,6,autopilot,8,base_mode,0,system_status,0,mavlink_version,3,,Len,17
2014-11-13T12:34:50.068,FE,19,C5, 1, 1,16,mavlink_param_value_t,param_value,1,param_count,247,param_index,72,param_id,RC10_REV,param_type,2,,Len,33
2014-11-13T12:34:50.070,FE,19,C6, 1, 1,16,mavlink_param_value_t,param_value,0,param_count,247,param_index,73,param_id,RC10_DZ,param_type,4,,Len,33
2014-11-13T12:34:50.072,FE,19,C7, 1, 1,16,mavlink_param_value_t,param_value,0,param_count,247,param_index,74,param_id,RC10_FUNCTION,param_type,2,,Len,33
2014-11-13T12:34:50.097,FE,14,C8, 1, 1,4A,mavlink_vfr_hud_t,airspeed,0,groundspeed,0,alt,2.1,climb,0,heading,55,throttle,16,,Len,28
2014-11-13T12:34:50.097,FE,19,C9, 1, 1,16,mavlink_param_value_t,param_value,1100,param_count,247,param_index,75,param_id,RC11_MIN,param_type,4,,Len,33
2014-11-13T12:34:50.099,FE,19,CA, 1, 1,16,mavlink_param_value_t,param_value,1500,param_count,247,param_index,76,param_id,RC11_TRIM,param_type,4,,Len,33
2014-11-13T12:34:50.113,FE, 9,3E,33,44,A6,mavlink_radio_t,rxerrors,1,fixed,0,rssi,171,remrssi,178,txbuf,100,noise,38,remnoise,20,,Len,17
2014-11-13T12:34:50.113,FE, 9,3E,33,44,6D,mavlink_radio_status_t,rxerrors,1,fixed,0,rssi,171,remrssi,178,txbuf,100,noise,38,remnoise,20,,Len,17
2014-11-13T12:34:50.173,FE,19,CB, 1, 1,16,mavlink_param_value_t,param_value,1900,param_count,247,param_index,77,param_id,RC11_MAX,param_type,4,,Len,33
2014-11-13T12:34:50.175,FE,19,CC, 1, 1,16,mavlink_param_value_t,param_value,1,param_count,247,param_index,78,param_id,RC11_REV,param_type,2,,Len,33
2014-11-13T12:34:50.189,FE,19,CD, 1, 1,16,mavlink_param_value_t,param_value,0,param_count,247,param_index,79,param_id,RC11_DZ,param_type,4,,Len,33
2014-11-13T12:34:50.190,FE,19,CE, 1, 1,16,mavlink_param_value_t,param_value,0,param_count,247,param_index,80,param_id,RC11_FUNCTION,param_type,2,,Len,33
2014-11-13T12:34:50.375,FE,19,CF, 1, 1,16,mavlink_param_value_t,param_value,0,param_count,247,param_index,81,param_id,THR_MIN,param_type,2,,Len,33
2014-11-13T12:34:50.377,FE,19,D0, 1, 1,16,mavlink_param_value_t,param_value,100,param_count,247,param_index,82,param_id,THR_MAX,param_type,2,,Len,33
2014-11-13T12:34:50.497,FE,19,D1, 1, 1,16,mavlink_param_value_t,param_value,20,param_count,247,param_index,83,param_id,CRUISE_THROTTLE,param_type,2,,Len,33
2014-11-13T12:34:50.498,FE,1C,D2, 1, 1,1E,mavlink_attitude_t,time_boot_ms,350789,roll,-0.09002861,pitch,0.06369938,yaw,0.9635347,rollspeed,4.411972E-05,pitchspeed,0.0002482337,yawspeed,0.0002157233,,Len,36
2014-11-13T12:34:50.498,FE,14,D3, 1, 1,4A,mavlink_vfr_hud_t,airspeed,0,groundspeed,0,alt,2.13,climb,0,heading,55,throttle,16,,Len,28
2014-11-13T12:34:50.528,FE,19,D4, 1, 1,16,mavlink_param_value_t,param_value,100,param_count,247,param_index,84,param_id,THR_SLEWRATE,param_type,2,,Len,33
2014-11-13T12:34:50.530,FE,19,D5, 1, 1,16,mavlink_param_value_t,param_value,0,param_count,247,param_index,85,param_id,SKID_STEER_OUT,param_type,2,,Len,33
2014-11-13T12:34:50.531,FE,19,D6, 1, 1,16,mavlink_param_value_t,param_value,0,param_count,247,param_index,86,param_id,SKID_STEER_IN,param_type,2,,Len,33
2014-11-13T12:34:50.559,FE,19,D7, 1, 1,16,mavlink_param_value_t,param_value,2,param_count,247,param_index,87,param_id,FS_ACTION,param_type,2,,Len,33
2014-11-13T12:34:50.560,FE,19,D8, 1, 1,16,mavlink_param_value_t,param_value,5,param_count,247,param_index,88,param_id,FS_TIMEOUT,param_type,9,,Len,33
2014-11-13T12:34:50.562,FE,19,D9, 1, 1,16,mavlink_param_value_t,param_value,1,param_count,247,param_index,89,param_id,FS_THR_ENABLE,param_type,2,,Len,33
2014-11-13T12:34:50.703,FE,19,DA, 1, 1,16,mavlink_param_value_t,param_value,910,param_count,247,param_index,90,param_id,FS_THR_VALUE,param_type,4,,Len,33
2014-11-13T12:34:50.729,FE,19,DB, 1, 1,16,mavlink_param_value_t,param_value,0,param_count,247,param_index,91,param_id,FS_GCS_ENABLE,param_type,2,,Len,33
2014-11-13T12:34:50.731,FE,19,DC, 1, 1,16,mavlink_param_value_t,param_value,100,param_count,247,param_index,92,param_id,RNGFND_TRIGGR_CM,param_type,4,,Len,33
2014-11-13T12:34:50.762,FE,1C,DD, 1, 1,1E,mavlink_attitude_t,time_boot_ms,351209,roll,-0.0900401,pitch,0.06377889,yaw,0.963473,rollspeed,4.411972E-05,pitchspeed,-0.0008159849,yawspeed,0.0002157233,,Len,36
2014-11-13T12:34:50.777,FE,19,DE, 1, 1,16,mavlink_param_value_t,param_value,45,param_count,247,param_index,93,param_id,RNGFND_TURN_ANGL,param_type,9,,Len,33
2014-11-13T12:34:50.779,FE,19,DF, 1, 1,16,mavlink_param_value_t,param_value,1,param_count,247,param_index,94,param_id,RNGFND_TURN_TIME,param_type,9,,Len,33
2014-11-13T12:34:50.836,FE,19,E0, 1, 1,16,mavlink_param_value_t,param_value,2,param_count,247,param_index,95,param_id,RNGFND_DEBOUNCE,param_type,2,,Len,33
2014-11-13T12:34:50.838,FE,14,E1, 1, 1,4A,mavlink_vfr_hud_t,airspeed,0,groundspeed,0,alt,2.11,climb,0,heading,55,throttle,16,,Len,28
2014-11-13T12:34:50.838,FE, 9,E2, 1, 1, 0,mavlink_heartbeat_t,custom_mode,0,type,10,autopilot,3,base_mode,193,system_status,4,mavlink_version,3,,Len,17
2014-11-13T12:34:50.959,FE,19,E3, 1, 1,16,mavlink_param_value_t,param_value,7,param_count,247,param_index,96,param_id,LEARN_CH,param_type,2,,Len,33
2014-11-13T12:34:50.961,FE,19,E4, 1, 1,16,mavlink_param_value_t,param_value,8,param_count,247,param_index,97,param_id,MODE_CH,param_type,2,,Len,33
2014-11-13T12:34:50.962,FE,19,E5, 1, 1,16,mavlink_param_value_t,param_value,10,param_count,247,param_index,98,param_id,MODE1,param_type,2,,Len,33
2014-11-13T12:34:51.038,FE,19,E6, 1, 1,16,mavlink_param_value_t,param_value,2,param_count,247,param_index,99,param_id,MODE2,param_type,2,,Len,33
2014-11-13T12:34:51.042,FE, 9,DD,FF,BE, 0,mavlink_heartbeat_t,custom_mode,0,type,6,autopilot,8,base_mode,0,system_status,0,mavlink_version,3,,Len,17
2014-11-13T12:34:51.167,FE,19,E7, 1, 1,16,mavlink_param_value_t,param_value,2,param_count,247,param_index,100,param_id,MODE3,param_type,2,,Len,33
2014-11-13T12:34:51.183,FE,19,E8, 1, 1,16,mavlink_param_value_t,param_value,2,param_count,247,param_index,101,param_id,MODE4,param_type,2,,Len,33
2014-11-13T12:34:51.185,FE,19,E9, 1, 1,16,mavlink_param_value_t,param_value,2,param_count,247,param_index,102,param_id,MODE5,param_type,2,,Len,33
2014-11-13T12:34:51.199,FE,19,EA, 1, 1,16,mavlink_param_value_t,param_value,0,param_count,247,param_index,103,param_id,MODE6,param_type,2,,Len,33
2014-11-13T12:34:51.215,FE,19,EB, 1, 1,16,mavlink_param_value_t,param_value,4,param_count,247,param_index,104,param_id,WP_RADIUS,param_type,9,,Len,33
2014-11-13T12:34:51.216,FE,1C,EC, 1, 1,21,mavlink_global_position_int_t,time_boot_ms,351629,lat,0,lon,0,alt,-17000,relative_alt,2110,vx,0,vy,0,vz,0,hdg,5521,,Len,36
2014-11-13T12:34:51.231,FE,1C,ED, 1, 1,1E,mavlink_attitude_t,time_boot_ms,351630,roll,-0.0900195,pitch,0.06368203,yaw,0.9637051,rollspeed,4.411972E-05,pitchspeed,-1.782284E-05,yawspeed,0.0002157233,,Len,36
2014-11-13T12:34:51.257,FE,1C,EE, 1, 1,A3,mavlink_ahrs_t,omegaIx,-0.0009136822,omegaIy,0.001059706,omegaIz,-0.0001567535,accel_weight,0,renorm_val,0,error_rp,0.0002358805,error_yaw,0.002197483,,Len,36
2014-11-13T12:34:51.257,FE, 3,EF, 1, 1,A5,mavlink_hwstatus_t,Vcc,4918,I2Cerr,0,,Len,11
2014-11-13T12:34:51.257,FE, C,F0, 1, 1, 2,mavlink_system_time_t,time_unix_usec,0,time_boot_ms,351691,,Len,20
2014-11-13T12:34:51.258,FE, 9,3F,33,44,A6,mavlink_radio_t,rxerrors,1,fixed,0,rssi,171,remrssi,178,txbuf,100,noise,41,remnoise,20,,Len,17
2014-11-13T12:34:51.258,FE, 9,3F,33,44,6D,mavlink_radio_status_t,rxerrors,1,fixed,0,rssi,171,remrssi,178,txbuf,100,noise,41,remnoise,20,,Len,17
2014-11-13T12:34:51.289,FE,14,F1, 1, 1,4A,mavlink_vfr_hud_t,airspeed,0,groundspeed,0,alt,2.1,climb,0,heading,55,throttle,16,,Len,28
2014-11-13T12:34:51.321,FE,19,F2, 1, 1,16,mavlink_param_value_t,param_value,1,param_count,247,param_index,105,param_id,TURN_MAX_G,param_type,9,,Len,33
2014-11-13T12:34:51.337,FE,19,F3, 1, 1,16,mavlink_param_value_t,param_value,0.75,param_count,247,param_index,106,param_id,STEER2SRV_TCONST,param_type,9,,Len,33
2014-11-13T12:34:51.339,FE,19,F4, 1, 1,16,mavlink_param_value_t,param_value,0.5,param_count,247,param_index,107,param_id,STEER2SRV_P,param_type,9,,Len,33
2014-11-13T12:34:51.413,FE,19,F5, 1, 1,16,mavlink_param_value_t,param_value,0.2,param_count,247,param_index,108,param_id,STEER2SRV_I,param_type,9,,Len,33
2014-11-13T12:34:51.415,FE,19,F6, 1, 1,16,mavlink_param_value_t,param_value,0.005,param_count,247,param_index,109,param_id,STEER2SRV_D,param_type,9,,Len,33
2014-11-13T12:34:51.416,FE,19,F7, 1, 1,16,mavlink_param_value_t,param_value,1500,param_count,247,param_index,110,param_id,STEER2SRV_IMAX,param_type,4,,Len,33
2014-11-13T12:34:51.429,FE,1F,F8, 1, 1, 1,mavlink_sys_status_t,onboard_control_sensors_present,2153511,onboard_control_sensors_enabled,2097191,onboard_control_sensors_health,2153479,load,390,voltage_battery,0,current_battery,-1,drop_rate_comm,0,errors_comm,0,errors_count1,0,errors_count2,0,errors_count3,0,errors_count4,0,battery_remaining,255,,Len,39
2014-11-13T12:34:51.429,FE, 4,F9, 1, 1,98,mavlink_meminfo_t,brkval,6112,freemem,2048,,Len,12
2014-11-13T12:34:51.445,FE, 2,FA, 1, 1,2A,mavlink_mission_current_t,seq,0,,Len,10
2014-11-13T12:34:51.445,FE,1E,FB, 1, 1,18,mavlink_gps_raw_int_t,time_usec,0,lat,0,lon,0,alt,-17000,eph,9999,epv,65535,vel,0,cog,0,fix_type,1,satellites_visible,0,,Len,38
2014-11-13T12:34:51.475,FE,1A,FC, 1, 1,1B,mavlink_raw_imu_t,time_usec,351873097,xacc,61,yacc,87,zacc,-957,xgyro,0,ygyro,-1,zgyro,0,xmag,93,ymag,-157,zmag,120,,Len,34
2014-11-13T12:34:51.475,FE,15,FD, 1, 1,24,mavlink_servo_output_raw_t,time_usec,351892363,servo1_raw,1460,servo2_raw,1499,servo3_raw,1516,servo4_raw,1498,servo5_raw,1553,servo6_raw,1499,servo7_raw,967,servo8_raw,2073,port,0,,Len,29
2014-11-13T12:34:51.475,FE,16,FE, 1, 1,23,mavlink_rc_channels_raw_t,time_boot_ms,351892,chan1_raw,1460,chan2_raw,1499,chan3_raw,1516,chan4_raw,1498,chan5_raw,1554,chan6_raw,1499,chan7_raw,966,chan8_raw,2073,port,0,rssi,0,,Len,30
2014-11-13T12:34:51.507,FE,19,FF, 1, 1,16,mavlink_param_value_t,param_value,1,param_count,247,param_index,111,param_id,STEER2SRV_MINSPD,param_type,9,,Len,33
2014-11-13T12:34:51.633,FE,19, 0, 1, 1,16,mavlink_param_value_t,param_value,0.7,param_count,247,param_index,112,param_id,SPEED2THR_P,param_type,9,,Len,33
2014-11-13T12:34:51.635,FE,19, 1, 1, 1,16,mavlink_param_value_t,param_value,0.2,param_count,247,param_index,113,param_id,SPEED2THR_I,param_type,9,,Len,33
2014-11-13T12:34:51.745,FE,1C, 2, 1, 1,1E,mavlink_attitude_t,time_boot_ms,352050,roll,-0.09003613,pitch,0.06358983,yaw,0.9636475,rollspeed,5.104381E-05,pitchspeed,0.0002643841,yawspeed,0.0001397162,,Len,36
2014-11-13T12:34:51.745,FE,19, 3, 1, 1,16,mavlink_param_value_t,param_value,0.2,param_count,247,param_index,114,param_id,SPEED2THR_D,param_type,9,,Len,33
2014-11-13T12:34:51.789,FE,19, 4, 1, 1,16,mavlink_param_value_t,param_value,4000,param_count,247,param_index,115,param_id,SPEED2THR_IMAX,param_type,4,,Len,33
2014-11-13T12:34:51.791,FE,19, 5, 1, 1,16,mavlink_param_value_t,param_value,-73.93443,param_count,247,param_index,116,param_id,COMPASS_OFS_X,param_type,9,,Len,33
2014-11-13T12:34:51.792,FE,14, 6, 1, 1,4A,mavlink_vfr_hud_t,airspeed,0,groundspeed,0,alt,2.11,climb,0,heading,55,throttle,16,,Len,28
2014-11-13T12:34:51.820,FE,19, 7, 1, 1,16,mavlink_param_value_t,param_value,-48.73246,param_count,247,param_index,117,param_id,COMPASS_OFS_Y,param_type,9,,Len,33
2014-11-13T12:34:51.822,FE,19, 8, 1, 1,16,mavlink_param_value_t,param_value,-6.555926,param_count,247,param_index,118,param_id,COMPASS_OFS_Z,param_type,9,,Len,33
2014-11-13T12:34:51.823,FE,19, 9, 1, 1,16,mavlink_param_value_t,param_value,0,param_count,247,param_index,119,param_id,COMPASS_DEC,param_type,9,,Len,33
2014-11-13T12:34:51.852,FE, 9, A, 1, 1, 0,mavlink_heartbeat_t,custom_mode,0,type,10,autopilot,3,base_mode,193,system_status,4,mavlink_version,3,,Len,17
2014-11-13T12:34:51.852,FE,19, B, 1, 1,16,mavlink_param_value_t,param_value,1,param_count,247,param_index,120,param_id,COMPASS_LEARN,param_type,2,,Len,33
2014-11-13T12:34:51.868,FE,19, C, 1, 1,16,mavlink_param_value_t,param_value,1,param_count,247,param_index,121,param_id,COMPASS_USE,param_type,2,,Len,33
2014-11-13T12:34:51.964,FE,19, D, 1, 1,16,mavlink_param_value_t,param_value,1,param_count,247,param_index,122,param_id,COMPASS_AUTODEC,param_type,2,,Len,33
2014-11-13T12:34:51.980,FE,19, E, 1, 1,16,mavlink_param_value_t,param_value,0,param_count,247,param_index,123,param_id,COMPASS_MOTCT,param_type,2,,Len,33
2014-11-13T12:34:52.052,FE, 9,DE,FF,BE, 0,mavlink_heartbeat_t,custom_mode,0,type,6,autopilot,8,base_mode,0,system_status,0,mavlink_version,3,,Len,17
2014-11-13T12:34:52.076,FE,19, F, 1, 1,16,mavlink_param_value_t,param_value,0,param_count,247,param_index,124,param_id,COMPASS_MOT_X,param_type,9,,Len,33
2014-11-13T12:34:52.092,FE,19,10, 1, 1,16,mavlink_param_value_t,param_value,0,param_count,247,param_index,125,param_id,COMPASS_MOT_Y,param_type,9,,Len,33
2014-11-13T12:34:52.094,FE, 9,40,33,44,A6,mavlink_radio_t,rxerrors,1,fixed,0,rssi,171,remrssi,178,txbuf,100,noise,41,remnoise,20,,Len,17
2014-11-13T12:34:52.095,FE, 9,40,33,44,6D,mavlink_radio_status_t,rxerrors,1,fixed,0,rssi,171,remrssi,178,txbuf,100,noise,41,remnoise,20,,Len,17
2014-11-13T12:34:52.204,FE,1C,11, 1, 1,1E,mavlink_attitude_t,time_boot_ms,352473,roll,-0.09002645,pitch,0.06367768,yaw,0.9637067,rollspeed,5.104381E-05,pitchspeed,0.0002643841,yawspeed,0.0001397162,,Len,36
2014-11-13T12:34:52.330,FE,14,12, 1, 1,4A,mavlink_vfr_hud_t,airspeed,0,groundspeed,0,alt,1.99,climb,0,heading,55,throttle,16,,Len,28
2014-11-13T12:34:52.330,FE,19,13, 1, 1,16,mavlink_param_value_t,param_value,0,param_count,247,param_index,126,param_id,COMPASS_MOT_Z,param_type,9,,Len,33
2014-11-13T12:34:52.332,FE,19,14, 1, 1,16,mavlink_param_value_t,param_value,8,param_count,247,param_index,127,param_id,COMPASS_ORIENT,param_type,2,,Len,33
2014-11-13T12:34:52.346,FE,19,15, 1, 1,16,mavlink_param_value_t,param_value,0,param_count,247,param_index,128,param_id,COMPASS_EXTERNAL,param_type,2,,Len,33
2014-11-13T12:34:52.362,FE,19,16, 1, 1,16,mavlink_param_value_t,param_value,0,param_count,247,param_index,129,param_id,SCHED_DEBUG,param_type,2,,Len,33
2014-11-13T12:34:52.363,FE,19,17, 1, 1,16,mavlink_param_value_t,param_value,100628.6,param_count,247,param_index,130,param_id,GND_ABS_PRESS,param_type,9,,Len,33
2014-11-13T12:34:52.378,FE,19,18, 1, 1,16,mavlink_param_value_t,param_value,28.72628,param_count,247,param_index,131,param_id,GND_TEMP,param_type,9,,Len,33
2014-11-13T12:34:52.382,FE,19,19, 1, 1,16,mavlink_param_value_t,param_value,0,param_count,247,param_index,132,param_id,GND_ALT_OFFSET,param_type,2,,Len,33
2014-11-13T12:34:52.397,FE,19,1A, 1, 1,16,mavlink_param_value_t,param_value,13,param_count,247,param_index,133,param_id,RELAY_PIN,param_type,2,,Len,33
2014-11-13T12:34:52.444,FE,19,1B, 1, 1,16,mavlink_param_value_t,param_value,-1,param_count,247,param_index,134,param_id,RELAY_PIN2,param_type,2,,Len,33
2014-11-13T12:34:52.446,FE,1C,1C, 1, 1,1E,mavlink_attitude_t,time_boot_ms,352895,roll,-0.09004169,pitch,0.06366716,yaw,0.9637012,rollspeed,-0.0007471201,pitchspeed,0.0002643841,yawspeed,0.0001397162,,Len,36
2014-11-13T12:34:52.487,FE,19,1D, 1, 1,16,mavlink_param_value_t,param_value,-1,param_count,247,param_index,135,param_id,RELAY_PIN3,param_type,2,,Len,33
2014-11-13T12:34:52.489,FE,19,1E, 1, 1,16,mavlink_param_value_t,param_value,-1,param_count,247,param_index,136,param_id,RELAY_PIN4,param_type,2,,Len,33
2014-11-13T12:34:52.491,FE,19,1F, 1, 1,16,mavlink_param_value_t,param_value,0,param_count,247,param_index,137,param_id,RELAY_DEFAULT,param_type,2,,Len,33
2014-11-13T12:34:52.534,FE,14,20, 1, 1,4A,mavlink_vfr_hud_t,airspeed,0,groundspeed,0,alt,2.08,climb,0,heading,55,throttle,16,,Len,28
2014-11-13T12:34:52.550,FE,1C,21, 1, 1,21,mavlink_global_position_int_t,time_boot_ms,352973,lat,0,lon,0,alt,-17000,relative_alt,2050,vx,0,vy,0,vz,0,hdg,5521,,Len,36
2014-11-13T12:34:52.662,FE,19,22, 1, 1,16,mavlink_param_value_t,param_value,1,param_count,247,param_index,138,param_id,RCMAP_ROLL,param_type,2,,Len,33
2014-11-13T12:34:52.774,FE,19,23, 1, 1,16,mavlink_param_value_t,param_value,2,param_count,247,param_index,139,param_id,RCMAP_PITCH,param_type,2,,Len,33
2014-11-13T12:34:52.790,FE,19,24, 1, 1,16,mavlink_param_value_t,param_value,3,param_count,247,param_index,140,param_id,RCMAP_THROTTLE,param_type,2,,Len,33
2014-11-13T12:34:52.792,FE,19,25, 1, 1,16,mavlink_param_value_t,param_value,4,param_count,247,param_index,141,param_id,RCMAP_YAW,param_type,2,,Len,33
2014-11-13T12:34:52.816,FE,19,26, 1, 1,16,mavlink_param_value_t,param_value,2,param_count,247,param_index,142,param_id,SR0_RAW_SENS,param_type,4,,Len,33
2014-11-13T12:34:52.818,FE,19,27, 1, 1,16,mavlink_param_value_t,param_value,2,param_count,247,param_index,143,param_id,SR0_EXT_STAT,param_type,4,,Len,33
2014-11-13T12:34:52.858,FE,19,28, 1, 1,16,mavlink_param_value_t,param_value,2,param_count,247,param_index,144,param_id,SR0_RC_CHAN,param_type,4,,Len,33
2014-11-13T12:34:52.860,FE,19,29, 1, 1,16,mavlink_param_value_t,param_value,1,param_count,247,param_index,145,param_id,SR0_RAW_CTRL,param_type,4,,Len,33
2014-11-13T12:34:52.861,FE,19,2A, 1, 1,16,mavlink_param_value_t,param_value,3,param_count,247,param_index,146,param_id,SR0_POSITION,param_type,4,,Len,33
2014-11-13T12:34:52.863,FE, 9,2B, 1, 1, 0,mavlink_heartbeat_t,custom_mode,0,type,10,autopilot,3,base_mode,193,system_status,4,mavlink_version,3,,Len,17
2014-11-13T12:34:52.891,FE,1C,2C, 1, 1,1E,mavlink_attitude_t,time_boot_ms,353313,roll,-0.09001289,pitch,0.06358043,yaw,0.9636157,rollspeed,5.104381E-05,pitchspeed,-0.0002677252,yawspeed,0.0001397162,,Len,36
2014-11-13T12:34:53.002,FE,14,2D, 1, 1,4A,mavlink_vfr_hud_t,airspeed,0,groundspeed,0,alt,2.02,climb,0,heading,55,throttle,16,,Len,28
2014-11-13T12:34:53.028,FE,19,2E, 1, 1,16,mavlink_param_value_t,param_value,10,param_count,247,param_index,147,param_id,SR0_EXTRA1,param_type,4,,Len,33
2014-11-13T12:34:53.031,FE,19,2F, 1, 1,16,mavlink_param_value_t,param_value,10,param_count,247,param_index,148,param_id,SR0_EXTRA2,param_type,4,,Len,33
2014-11-13T12:34:53.033,FE,19,30, 1, 1,16,mavlink_param_value_t,param_value,2,param_count,247,param_index,149,param_id,SR0_EXTRA3,param_type,4,,Len,33
2014-11-13T12:34:53.044,FE,19,31, 1, 1,16,mavlink_param_value_t,param_value,10,param_count,247,param_index,150,param_id,SR0_PARAMS,param_type,4,,Len,33
2014-11-13T12:34:53.062,FE, 9,DF,FF,BE, 0,mavlink_heartbeat_t,custom_mode,0,type,6,autopilot,8,base_mode,0,system_status,0,mavlink_version,3,,Len,17
2014-11-13T12:34:53.073,FE,19,32, 1, 1,16,mavlink_param_value_t,param_value,1,param_count,247,param_index,151,param_id,SR1_RAW_SENS,param_type,4,,Len,33
2014-11-13T12:34:53.075,FE,19,33, 1, 1,16,mavlink_param_value_t,param_value,1,param_count,247,param_index,152,param_id,SR1_EXT_STAT,param_type,4,,Len,33
2014-11-13T12:34:53.090,FE, 9,41,33,44,A6,mavlink_radio_t,rxerrors,1,fixed,0,rssi,171,remrssi,178,txbuf,100,noise,43,remnoise,18,,Len,17
2014-11-13T12:34:53.105,FE, 9,41,33,44,6D,mavlink_radio_status_t,rxerrors,1,fixed,0,rssi,171,remrssi,178,txbuf,100,noise,43,remnoise,18,,Len,17
2014-11-13T12:34:53.184,FE,19,34, 1, 1,16,mavlink_param_value_t,param_value,1,param_count,247,param_index,153,param_id,SR1_RC_CHAN,param_type,4,,Len,33
2014-11-13T12:34:53.186,FE,19,35, 1, 1,16,mavlink_param_value_t,param_value,1,param_count,247,param_index,154,param_id,SR1_RAW_CTRL,param_type,4,,Len,33
2014-11-13T12:34:53.211,FE,19,36, 1, 1,16,mavlink_param_value_t,param_value,1,param_count,247,param_index,155,param_id,SR1_POSITION,param_type,4,,Len,33
2014-11-13T12:34:53.213,FE,1C,37, 1, 1,A3,mavlink_ahrs_t,omegaIx,-0.0009067581,omegaIy,0.001075857,omegaIz,-0.0002327607,accel_weight,0,renorm_val,0,error_rp,0.0003397748,error_yaw,0.002827673,,Len,36
2014-11-13T12:34:53.213,FE, 3,38, 1, 1,A5,mavlink_hwstatus_t,Vcc,4876,I2Cerr,0,,Len,11
2014-11-13T12:34:53.339,FE, C,39, 1, 1, 2,mavlink_system_time_t,time_unix_usec,0,time_boot_ms,353653,,Len,20
2014-11-13T12:34:53.355,FE,1C,3A, 1, 1,1E,mavlink_attitude_t,time_boot_ms,353733,roll,-0.09004023,pitch,0.06357083,yaw,0.9634594,rollspeed,-0.001013175,pitchspeed,-0.0007998345,yawspeed,0.0001397162,,Len,36
2014-11-13T12:34:53.467,FE,19,3B, 1, 1,16,mavlink_param_value_t,param_value,1,param_count,247,param_index,156,param_id,SR1_EXTRA1,param_type,4,,Len,33
2014-11-13T12:34:53.483,FE,19,3C, 1, 1,16,mavlink_param_value_t,param_value,1,param_count,247,param_index,157,param_id,SR1_EXTRA2,param_type,4,,Len,33
2014-11-13T12:34:53.484,FE,19,3D, 1, 1,16,mavlink_param_value_t,param_value,1,param_count,247,param_index,158,param_id,SR1_EXTRA3,param_type,4,,Len,33
2014-11-13T12:34:53.499,FE,14,3E, 1, 1,4A,mavlink_vfr_hud_t,airspeed,0,groundspeed,0,alt,2.04,climb,0,heading,55,throttle,16,,Len,28
2014-11-13T12:34:53.515,FE,19,3F, 1, 1,16,mavlink_param_value_t,param_value,10,param_count,247,param_index,159,param_id,SR1_PARAMS,param_type,4,,Len,33
2014-11-13T12:34:53.516,FE,19,40, 1, 1,16,mavlink_param_value_t,param_value,8,param_count,247,param_index,160,param_id,NAVL1_PERIOD,param_type,9,,Len,33
2014-11-13T12:34:53.545,FE,19,41, 1, 1,16,mavlink_param_value_t,param_value,0.75,param_count,247,param_index,161,param_id,NAVL1_DAMPING,param_type,9,,Len,33
2014-11-13T12:34:53.547,FE,1F,42, 1, 1, 1,mavlink_sys_status_t,onboard_control_sensors_present,2153511,onboard_control_sensors_enabled,2097191,onboard_control_sensors_health,2153479,load,397,voltage_battery,0,current_battery,-1,drop_rate_comm,0,errors_comm,0,errors_count1,0,errors_count2,0,errors_count3,0,errors_count4,0,battery_remaining,255,,Len,39
2014-11-13T12:34:53.548,FE, 4,43, 1, 1,98,mavlink_meminfo_t,brkval,6112,freemem,2048,,Len,12
2014-11-13T12:34:53.548,FE, 2,44, 1, 1,2A,mavlink_mission_current_t,seq,0,,Len,10
2014-11-13T12:34:53.577,FE,1E,45, 1, 1,18,mavlink_gps_raw_int_t,time_usec,0,lat,0,lon,0,alt,-17000,eph,9999,epv,65535,vel,0,cog,0,fix_type,1,satellites_visible,0,,Len,38
2014-11-13T12:34:53.705,FE,1A,46, 1, 1,1B,mavlink_raw_imu_t,time_usec,353896835,xacc,61,yacc,86,zacc,-957,xgyro,0,ygyro,0,zgyro,0,xmag,93,ymag,-157,zmag,119,,Len,34
2014-11-13T12:34:53.705,FE,2A,47, 1, 1,96,mavlink_sensor_offsets_t,mag_declination,0,raw_press,100604,raw_temp,3270,gyro_cal_x,-0.01798531,gyro_cal_y,-0.04282153,gyro_cal_z,-0.01101467,accel_cal_x,0,accel_cal_y,0,accel_cal_z,0,mag_ofs_x,-73,mag_ofs_y,-48,mag_ofs_z,-6,,Len,50
2014-11-13T12:34:53.817,FE,15,48, 1, 1,24,mavlink_servo_output_raw_t,time_usec,353915151,servo1_raw,1460,servo2_raw,1499,servo3_raw,1515,servo4_raw,1498,servo5_raw,1553,servo6_raw,1499,servo7_raw,967,servo8_raw,2073,port,0,,Len,29
2014-11-13T12:34:53.817,FE,16,49, 1, 1,23,mavlink_rc_channels_raw_t,time_boot_ms,353915,chan1_raw,1460,chan2_raw,1499,chan3_raw,1515,chan4_raw,1499,chan5_raw,1554,chan6_raw,1499,chan7_raw,966,chan8_raw,2073,port,0,rssi,0,,Len,30
2014-11-13T12:34:53.929,FE,19,4A, 1, 1,16,mavlink_param_value_t,param_value,0,param_count,247,param_index,162,param_id,RNGFND_TYPE,param_type,2,,Len,33
2014-11-13T12:34:53.945,FE,19,4B, 1, 1,16,mavlink_param_value_t,param_value,-1,param_count,247,param_index,163,param_id,RNGFND_PIN,param_type,2,,Len,33
2014-11-13T12:34:53.947,FE,19,4C, 1, 1,16,mavlink_param_value_t,param_value,3,param_count,247,param_index,164,param_id,RNGFND_SCALING,param_type,9,,Len,33
2014-11-13T12:34:53.961,FE,19,4D, 1, 1,16,mavlink_param_value_t,param_value,0,param_count,247,param_index,165,param_id,RNGFND_OFFSET,param_type,9,,Len,33
2014-11-13T12:34:53.977,FE,19,4E, 1, 1,16,mavlink_param_value_t,param_value,0,param_count,247,param_index,166,param_id,RNGFND_FUNCTION,param_type,2,,Len,33
2014-11-13T12:34:53.979,FE,19,4F, 1, 1,16,mavlink_param_value_t,param_value,20,param_count,247,param_index,167,param_id,RNGFND_MIN_CM,param_type,4,,Len,33
2014-11-13T12:34:54.008,FE,1C,50, 1, 1,1E,mavlink_attitude_t,time_boot_ms,354153,roll,-0.09007005,pitch,0.06358048,yaw,0.9634051,rollspeed,-0.0007471201,pitchspeed,0.0002643841,yawspeed,0.0001397162,,Len,36
2014-11-13T12:34:54.009,FE,14,51, 1, 1,4A,mavlink_vfr_hud_t,airspeed,0,groundspeed,0,alt,2.06,climb,0,heading,55,throttle,16,,Len,28
2014-11-13T12:34:54.009,FE,19,52, 1, 1,16,mavlink_param_value_t,param_value,700,param_count,247,param_index,168,param_id,RNGFND_MAX_CM,param_type,4,,Len,33
2014-11-13T12:34:54.024,FE,19,53, 1, 1,16,mavlink_param_value_t,param_value,-1,param_count,247,param_index,169,param_id,RNGFND_STOP_PIN,param_type,2,,Len,33
2014-11-13T12:34:54.040,FE,19,54, 1, 1,16,mavlink_param_value_t,param_value,0,param_count,247,param_index,170,param_id,RNGFND_SETTLE_MS,param_type,4,,Len,33
2014-11-13T12:34:54.072,FE, 9,E0,FF,BE, 0,mavlink_heartbeat_t,custom_mode,0,type,6,autopilot,8,base_mode,0,system_status,0,mavlink_version,3,,Len,17
2014-11-13T12:34:54.072,FE, 9,55, 1, 1, 0,mavlink_heartbeat_t,custom_mode,0,type,10,autopilot,3,base_mode,193,system_status,4,mavlink_version,3,,Len,17
2014-11-13T12:34:54.088,FE,1C,56, 1, 1,21,mavlink_global_position_int_t,time_boot_ms,354314,lat,0,lon,0,alt,-17000,relative_alt,2020,vx,0,vy,0,vz,0,hdg,5519,,Len,36
2014-11-13T12:34:54.088,FE,19,57, 1, 1,16,mavlink_param_value_t,param_value,1,param_count,247,param_index,171,param_id,RNGFND_RMETRIC,param_type,2,,Len,33
2014-11-13T12:34:54.104,FE,19,58, 1, 1,16,mavlink_param_value_t,param_value,0,param_count,247,param_index,172,param_id,RNGFND2_TYPE,param_type,2,,Len,33
2014-11-13T12:34:54.120,FE,19,59, 1, 1,16,mavlink_param_value_t,param_value,-1,param_count,247,param_index,173,param_id,RNGFND2_PIN,param_type,2,,Len,33
2014-11-13T12:34:54.121,FE,19,5A, 1, 1,16,mavlink_param_value_t,param_value,3,param_count,247,param_index,174,param_id,RNGFND2_SCALING,param_type,9,,Len,33
2014-11-13T12:34:54.165,FE,19,5B, 1, 1,16,mavlink_param_value_t,param_value,0,param_count,247,param_index,175,param_id,RNGFND2_OFFSET,param_type,9,,Len,33
2014-11-13T12:34:54.167,FE,19,5C, 1, 1,16,mavlink_param_value_t,param_value,0,param_count,247,param_index,176,param_id,RNGFND2_FUNCTION,param_type,2,,Len,33
2014-11-13T12:34:54.169,FE, 9,42,33,44,A6,mavlink_radio_t,rxerrors,1,fixed,0,rssi,171,remrssi,178,txbuf,100,noise,43,remnoise,21,,Len,17
2014-11-13T12:34:54.169,FE, 9,42,33,44,6D,mavlink_radio_status_t,rxerrors,1,fixed,0,rssi,171,remrssi,178,txbuf,100,noise,43,remnoise,21,,Len,17
2014-11-13T12:34:54.261,FE,1C,5D, 1, 1,1E,mavlink_attitude_t,time_boot_ms,354576,roll,-0.09014122,pitch,0.06360372,yaw,0.9633706,rollspeed,5.104381E-05,pitchspeed,0.0002643841,yawspeed,0.0001397162,,Len,36
2014-11-13T12:34:54.389,FE,19,5E, 1, 1,16,mavlink_param_value_t,param_value,20,param_count,247,param_index,177,param_id,RNGFND2_MIN_CM,param_type,4,,Len,33
2014-11-13T12:34:54.405,FE,19,5F, 1, 1,16,mavlink_param_value_t,param_value,700,param_count,247,param_index,178,param_id,RNGFND2_MAX_CM,param_type,4,,Len,33
2014-11-13T12:34:54.406,FE,19,60, 1, 1,16,mavlink_param_value_t,param_value,-1,param_count,247,param_index,179,param_id,RNGFND2_STOP_PIN,param_type,2,,Len,33
2014-11-13T12:34:54.436,FE,14,61, 1, 1,4A,mavlink_vfr_hud_t,airspeed,0,groundspeed,0,alt,2.19,climb,0,heading,55,throttle,16,,Len,28
2014-11-13T12:34:54.436,FE,19,62, 1, 1,16,mavlink_param_value_t,param_value,0,param_count,247,param_index,180,param_id,RNGFND2_SETTLE_M,param_type,4,,Len,33
2014-11-13T12:34:54.438,FE,19,63, 1, 1,16,mavlink_param_value_t,param_value,1,param_count,247,param_index,181,param_id,RNGFND2_RMETRIC,param_type,2,,Len,33
2014-11-13T12:34:54.467,FE,19,64, 1, 1,16,mavlink_param_value_t,param_value,88,param_count,247,param_index,182,param_id,INS_PRODUCT_ID,param_type,4,,Len,33
2014-11-13T12:34:54.469,FE,19,65, 1, 1,16,mavlink_param_value_t,param_value,1,param_count,247,param_index,183,param_id,INS_ACCSCAL_X,param_type,9,,Len,33
2014-11-13T12:34:54.470,FE,19,66, 1, 1,16,mavlink_param_value_t,param_value,1,param_count,247,param_index,184,param_id,INS_ACCSCAL_Y,param_type,9,,Len,33
2014-11-13T12:34:54.499,FE,19,67, 1, 1,16,mavlink_param_value_t,param_value,1,param_count,247,param_index,185,param_id,INS_ACCSCAL_Z,param_type,9,,Len,33
2014-11-13T12:34:54.515,FE,19,68, 1, 1,16,mavlink_param_value_t,param_value,0,param_count,247,param_index,186,param_id,INS_ACCOFFS_X,param_type,9,,Len,33
2014-11-13T12:34:54.626,FE,19,69, 1, 1,16,mavlink_param_value_t,param_value,0,param_count,247,param_index,187,param_id,INS_ACCOFFS_Y,param_type,9,,Len,33
2014-11-13T12:34:54.628,FE,19,6A, 1, 1,16,mavlink_param_value_t,param_value,0,param_count,247,param_index,188,param_id,INS_ACCOFFS_Z,param_type,9,,Len,33
2014-11-13T12:34:54.722,FE,1C,6B, 1, 1,1E,mavlink_attitude_t,time_boot_ms,354995,roll,-0.09007533,pitch,0.06360708,yaw,0.9634405,rollspeed,5.104381E-05,pitchspeed,-0.0002677252,yawspeed,0.0001397162,,Len,36
2014-11-13T12:34:54.864,FE,14,6C, 1, 1,4A,mavlink_vfr_hud_t,airspeed,0,groundspeed,0,alt,2.18,climb,0,heading,55,throttle,16,,Len,28
2014-11-13T12:34:54.864,FE,19,6D, 1, 1,16,mavlink_param_value_t,param_value,-0.01798531,param_count,247,param_index,189,param_id,INS_GYROFFS_X,param_type,9,,Len,33
2014-11-13T12:34:54.866,FE,19,6E, 1, 1,16,mavlink_param_value_t,param_value,-0.04282153,param_count,247,param_index,190,param_id,INS_GYROFFS_Y,param_type,9,,Len,33
2014-11-13T12:34:54.880,FE,19,6F, 1, 1,16,mavlink_param_value_t,param_value,-0.01101467,param_count,247,param_index,191,param_id,INS_GYROFFS_Z,param_type,9,,Len,33
2014-11-13T12:34:54.896,FE,19,70, 1, 1,16,mavlink_param_value_t,param_value,5,param_count,247,param_index,192,param_id,INS_MPU6K_FILTER,param_type,2,,Len,33
2014-11-13T12:34:54.897,FE,19,71, 1, 1,16,mavlink_param_value_t,param_value,1,param_count,247,param_index,193,param_id,AHRS_GPS_GAIN,param_type,9,,Len,33
2014-11-13T12:34:54.938,FE,19,72, 1, 1,16,mavlink_param_value_t,param_value,1,param_count,247,param_index,194,param_id,AHRS_GPS_USE,param_type,2,,Len,33
2014-11-13T12:34:54.940,FE, 9,73, 1, 1, 0,mavlink_heartbeat_t,custom_mode,0,type,10,autopilot,3,base_mode,193,system_status,4,mavlink_version,3,,Len,17
2014-11-13T12:34:54.940,FE,19,74, 1, 1,16,mavlink_param_value_t,param_value,0.2,param_count,247,param_index,195,param_id,AHRS_YAW_P,param_type,9,,Len,33
2014-11-13T12:34:54.942,FE,19,75, 1, 1,16,mavlink_param_value_t,param_value,0.2,param_count,247,param_index,196,param_id,AHRS_RP_P,param_type,9,,Len,33
2014-11-13T12:34:54.970,FE,19,76, 1, 1,16,mavlink_param_value_t,param_value,0,param_count,247,param_index,197,param_id,AHRS_WIND_MAX,param_type,2,,Len,33
2014-11-13T12:34:54.972,FE,1C,77, 1, 1,1E,mavlink_attitude_t,time_boot_ms,355415,roll,-0.09012245,pitch,0.06351157,yaw,0.9635021,rollspeed,5.104381E-05,pitchspeed,-0.0007998345,yawspeed,0.0001397162,,Len,36
2014-11-13T12:34:55.012,FE,19,78, 1, 1,16,mavlink_param_value_t,param_value,0,param_count,247,param_index,198,param_id,AHRS_TRIM_X,param_type,9,,Len,33
2014-11-13T12:34:55.014,FE,19,79, 1, 1,16,mavlink_param_value_t,param_value,0,param_count,247,param_index,199,param_id,AHRS_TRIM_Y,param_type,9,,Len,33
