2014-11-13T12:41:14.435,FE, 9,14,FF,BE, 0,mavlink_heartbeat_t,custom_mode,0,type,6,autopilot,8,base_mode,0,system_status,0,mavlink_version,3,,Len,17
2014-11-13T12:41:14.439,FE,1F, 7, 1, 1, 1,mavlink_sys_status_t,onboard_control_sensors_present,2153511,onboard_control_sensors_enabled,2097191,onboard_control_sensors_health,2153479,load,388,voltage_battery,0,current_battery,-1,drop_rate_comm,0,errors_comm,0,errors_count1,0,errors_count2,0,errors_count3,0,errors_count4,0,battery_remaining,255,,Len,39
2014-11-13T12:41:14.439,FE, 4, 8, 1, 1,98,mavlink_meminfo_t,brkval,6112,freemem,2048,,Len,12
2014-11-13T12:41:14.440,FE, 2, 9, 1, 1,2A,mavlink_mission_current_t,seq,0,,Len,10
2014-11-13T12:41:14.440,FE,1E, A, 1, 1,18,mavlink_gps_raw_int_t,time_usec,0,lat,0,lon,0,alt,-17000,eph,9999,epv,65535,vel,0,cog,0,fix_type,1,satellites_visible,0,,Len,38
2014-11-13T12:41:14.441,FE,14, B, 1, 1,4A,mavlink_vfr_hud_t,airspeed,0,groundspeed,0,alt,0.71,climb,0,heading,55,throttle,16,,Len,28
2014-11-13T12:41:14.441,FE,15, C, 1, 1,24,mavlink_servo_output_raw_t,time_usec,733840917,servo1_raw,1520,servo2_raw,1499,servo3_raw,1516,servo4_raw,1498,servo5_raw,1553,servo6_raw,1499,servo7_raw,967,servo8_raw,2073,port,0,,Len,29
2014-11-13T12:41:14.441,FE,16, D, 1, 1,23,mavlink_rc_channels_raw_t,time_boot_ms,733841,chan1_raw,1520,chan2_raw,1499,chan3_raw,1516,chan4_raw,1498,chan5_raw,1554,chan6_raw,1499,chan7_raw,966,chan8_raw,2073,port,0,rssi,0,,Len,30
2014-11-13T12:41:14.441,FE,1C, E, 1, 1,21,mavlink_global_position_int_t,time_boot_ms,733864,lat,0,lon,0,alt,-17000,relative_alt,670,vx,0,vy,0,vz,0,hdg,5517,,Len,36
2014-11-13T12:41:14.442,FE, 9, F, 1, 1, 0,mavlink_heartbeat_t,custom_mode,0,type,10,autopilot,3,base_mode,193,system_status,4,mavlink_version,3,,Len,17
2014-11-13T12:41:14.443,FE,1C,10, 1, 1,1E,mavlink_attitude_t,time_boot_ms,733881,roll,-0.09070096,pitch,0.06096292,yaw,0.9630445,rollspeed,1.244206E-05,pitchspeed,-0.0005481892,yawspeed,0.0008059032,,Len,36
2014-11-13T12:41:14.443,FE,1C,11, 1, 1,A3,mavlink_ahrs_t,omegaIx,-0.0009453599,omegaIy,0.001327502,omegaIz,-0.0006307932,accel_weight,0,renorm_val,0,error_rp,0.0003381719,error_yaw,0.001017384,,Len,36
2014-11-13T12:41:14.444,FE, 3,12, 1, 1,A5,mavlink_hwstatus_t,Vcc,4918,I2Cerr,0,,Len,11
2014-11-13T12:41:14.444,FE, C,13, 1, 1, 2,mavlink_system_time_t,time_unix_usec,0,time_boot_ms,733882,,Len,20
2014-11-13T12:41:14.444,FE,14,14, 1, 1,4A,mavlink_vfr_hud_t,airspeed,0,groundspeed,0,alt,0.67,climb,0,heading,55,throttle,16,,Len,28
2014-11-13T12:41:14.445,FE,1C,15, 1, 1,1E,mavlink_attitude_t,time_boot_ms,734000,roll,-0.09070364,pitch,0.06093924,yaw,0.9631251,rollspeed,-0.0002536126,pitchspeed,-0.0005481892,yawspeed,-0.0002583163,,Len,36
2014-11-13T12:41:14.445,FE,14,16, 1, 1,4A,mavlink_vfr_hud_t,airspeed,0,groundspeed,0,alt,0.71,climb,0,heading,55,throttle,16,,Len,28
2014-11-13T12:41:14.445,FE,1C,17, 1, 1,1E,mavlink_attitude_t,time_boot_ms,734122,roll,-0.09070322,pitch,0.06091022,yaw,0.9630884,rollspeed,1.244206E-05,pitchspeed,-0.0005481892,yawspeed,-0.0002583163,,Len,36
2014-11-13T12:41:14.445,FE,14,18, 1, 1,4A,mavlink_vfr_hud_t,airspeed,0,groundspeed,0,alt,0.76,climb,0,heading,55,throttle,16,,Len,28
2014-11-13T12:41:14.446,FE,1C,19, 1, 1,21,mavlink_global_position_int_t,time_boot_ms,734201,lat,0,lon,0,alt,-17000,relative_alt,720,vx,0,vy,0,vz,0,hdg,5517,,Len,36
2014-11-13T12:41:14.446,FE,1C,1A, 1, 1,1E,mavlink_attitude_t,time_boot_ms,734241,roll,-0.09071511,pitch,0.06089575,yaw,0.9630374,rollspeed,1.244206E-05,pitchspeed,-1.607987E-05,yawspeed,-0.0002583163,,Len,36
2014-11-13T12:41:14.447,FE,14,1B, 1, 1,4A,mavlink_vfr_hud_t,airspeed,0,groundspeed,0,alt,0.74,climb,0,heading,55,throttle,16,,Len,28
2014-11-13T12:41:14.447,FE,1A,1C, 1, 1,1B,mavlink_raw_imu_t,time_usec,734282051,xacc,59,yacc,86,zacc,-956,xgyro,0,ygyro,0,zgyro,0,xmag,92,ymag,-157,zmag,120,,Len,34
2014-11-13T12:41:14.447,FE,1F,1D, 1, 1, 1,mavlink_sys_status_t,onboard_control_sensors_present,2153511,onboard_control_sensors_enabled,2097191,onboard_control_sensors_health,2153479,load,387,voltage_battery,0,current_battery,-1,drop_rate_comm,0,errors_comm,0,errors_count1,0,errors_count2,0,errors_count3,0,errors_count4,0,battery_remaining,255,,Len,39
2014-11-13T12:41:14.447,FE, 4,1E, 1, 1,98,mavlink_meminfo_t,brkval,6112,freemem,2048,,Len,12
2014-11-13T12:41:14.448,FE, 2,1F, 1, 1,2A,mavlink_mission_current_t,seq,0,,Len,10
2014-11-13T12:41:14.449,FE,1E,20, 1, 1,18,mavlink_gps_raw_int_t,time_usec,0,lat,0,lon,0,alt,-17000,eph,9999,epv,65535,vel,0,cog,0,fix_type,1,satellites_visible,0,,Len,38
2014-11-13T12:41:14.449,FE,15,21, 1, 1,24,mavlink_servo_output_raw_t,time_usec,734363307,servo1_raw,1520,servo2_raw,1499,servo3_raw,1516,servo4_raw,1498,servo5_raw,1553,servo6_raw,1499,servo7_raw,967,servo8_raw,2073,port,0,,Len,29
2014-11-13T12:41:14.450,FE,16,22, 1, 1,23,mavlink_rc_channels_raw_t,time_boot_ms,734363,chan1_raw,1520,chan2_raw,1499,chan3_raw,1516,chan4_raw,1499,chan5_raw,1554,chan6_raw,1498,chan7_raw,967,chan8_raw,2073,port,0,rssi,0,,Len,30
2014-11-13T12:41:14.450,FE,1C,23, 1, 1,1E,mavlink_attitude_t,time_boot_ms,734363,roll,-0.09075676,pitch,0.06094237,yaw,0.963033,rollspeed,1.244206E-05,pitchspeed,-1.607987E-05,yawspeed,-0.0002583163,,Len,36
2014-11-13T12:41:14.450,FE,14,24, 1, 1,4A,mavlink_vfr_hud_t,airspeed,0,groundspeed,0,alt,0.76,climb,0,heading,55,throttle,16,,Len,28
2014-11-13T12:41:14.450,FE,1C,25, 1, 1,A3,mavlink_ahrs_t,omegaIx,-0.0009453599,omegaIy,0.001327502,omegaIz,-0.0006307932,accel_weight,0,renorm_val,0,error_rp,0.0004835827,error_yaw,0.001310655,,Len,36
2014-11-13T12:41:14.450,FE, 3,26, 1, 1,A5,mavlink_hwstatus_t,Vcc,4918,I2Cerr,0,,Len,11
2014-11-13T12:41:14.451,FE, C,27, 1, 1, 2,mavlink_system_time_t,time_unix_usec,0,time_boot_ms,734402,,Len,20
2014-11-13T12:41:14.451,FE,1C,28, 1, 1,1E,mavlink_attitude_t,time_boot_ms,734482,roll,-0.09075184,pitch,0.06091656,yaw,0.9630161,rollspeed,0.0002784967,pitchspeed,-0.0005481892,yawspeed,-0.0002583163,,Len,36
2014-11-13T12:41:14.451,FE,14,29, 1, 1,4A,mavlink_vfr_hud_t,airspeed,0,groundspeed,0,alt,0.76,climb,0,heading,55,throttle,16,,Len,28
2014-11-13T12:41:14.451,FE,1C,2A, 1, 1,21,mavlink_global_position_int_t,time_boot_ms,734541,lat,0,lon,0,alt,-17000,relative_alt,760,vx,0,vy,0,vz,0,hdg,5517,,Len,36
2014-11-13T12:41:14.451,FE,1C,2B, 1, 1,1E,mavlink_attitude_t,time_boot_ms,734601,roll,-0.09070434,pitch,0.06090636,yaw,0.962956,rollspeed,1.244206E-05,pitchspeed,0.0005160294,yawspeed,7.738359E-06,,Len,36
2014-11-13T12:41:14.452,FE,14,2C, 1, 1,4A,mavlink_vfr_hud_t,airspeed,0,groundspeed,0,alt,0.8,climb,0,heading,55,throttle,16,,Len,28
2014-11-13T12:41:14.538,FE,1C,2D, 1, 1,1E,mavlink_attitude_t,time_boot_ms,734723,roll,-0.09069916,pitch,0.06092562,yaw,0.9629653,rollspeed,1.244206E-05,pitchspeed,0.0002499729,yawspeed,-0.0002583163,,Len,36
2014-11-13T12:41:14.539,FE,14,2E, 1, 1,4A,mavlink_vfr_hud_t,airspeed,0,groundspeed,0,alt,0.75,climb,0,heading,55,throttle,16,,Len,28
2014-11-13T12:41:14.553,FE,1A,2F, 1, 1,1B,mavlink_raw_imu_t,time_usec,734801813,xacc,58,yacc,86,zacc,-956,xgyro,0,ygyro,-1,zgyro,0,xmag,92,ymag,-156,zmag,120,,Len,34
2014-11-13T12:41:14.570,FE,1F,30, 1, 1, 1,mavlink_sys_status_t,onboard_control_sensors_present,2153511,onboard_control_sensors_enabled,2097191,onboard_control_sensors_health,2153479,load,384,voltage_battery,0,current_battery,-1,drop_rate_comm,0,errors_comm,0,errors_count1,0,errors_count2,0,errors_count3,0,errors_count4,0,battery_remaining,255,,Len,39
2014-11-13T12:41:14.570,FE, 4,31, 1, 1,98,mavlink_meminfo_t,brkval,6112,freemem,2048,,Len,12
2014-11-13T12:41:14.570,FE, 2,32, 1, 1,2A,mavlink_mission_current_t,seq,0,,Len,10
2014-11-13T12:41:14.586,FE,1E,33, 1, 1,18,mavlink_gps_raw_int_t,time_usec,0,lat,0,lon,0,alt,-17000,eph,9999,epv,65535,vel,0,cog,0,fix_type,1,satellites_visible,0,,Len,38
2014-11-13T12:41:14.628,FE,1C,34, 1, 1,1E,mavlink_attitude_t,time_boot_ms,734842,roll,-0.0906993,pitch,0.06088252,yaw,0.9629654,rollspeed,1.244206E-05,pitchspeed,-0.0005481892,yawspeed,0.000273793,,Len,36
2014-11-13T12:41:14.628,FE,14,35, 1, 1,4A,mavlink_vfr_hud_t,airspeed,0,groundspeed,0,alt,0.74,climb,0,heading,55,throttle,16,,Len,28
2014-11-13T12:41:14.629,FE, 9,36, 1, 1, 0,mavlink_heartbeat_t,custom_mode,0,type,10,autopilot,3,base_mode,193,system_status,4,mavlink_version,3,,Len,17
2014-11-13T12:41:14.631,FE, 2,15,FF,BE,15,mavlink_param_request_list_t,target_system,1,target_component,1,,Len,10
2014-11-13T12:41:14.633,FE,1C,37, 1, 1,21,mavlink_global_position_int_t,time_boot_ms,734882,lat,0,lon,0,alt,-17000,relative_alt,740,vx,0,vy,0,vz,0,hdg,5517,,Len,36
2014-11-13T12:41:14.633,FE, 9,64,33,44,A6,mavlink_radio_t,rxerrors,1,fixed,0,rssi,167,remrssi,182,txbuf,100,noise,43,remnoise,20,,Len,17
2014-11-13T12:41:14.633,FE, 9,64,33,44,6D,mavlink_radio_status_t,rxerrors,1,fixed,0,rssi,167,remrssi,182,txbuf,100,noise,43,remnoise,20,,Len,17
2014-11-13T12:41:14.691,FE,15,38, 1, 1,24,mavlink_servo_output_raw_t,time_usec,734883450,servo1_raw,1520,servo2_raw,1499,servo3_raw,1516,servo4_raw,1498,servo5_raw,1553,servo6_raw,1499,servo7_raw,967,servo8_raw,2073,port,0,,Len,29
2014-11-13T12:41:14.691,FE,16,39, 1, 1,23,mavlink_rc_channels_raw_t,time_boot_ms,734883,chan1_raw,1520,chan2_raw,1499,chan3_raw,1516,chan4_raw,1498,chan5_raw,1554,chan6_raw,1499,chan7_raw,966,chan8_raw,2073,port,0,rssi,0,,Len,30
2014-11-13T12:41:14.707,FE,1C,3A, 1, 1,A3,mavlink_ahrs_t,omegaIx,-0.0009453599,omegaIy,0.001327502,omegaIz,-0.0006307932,accel_weight,0,renorm_val,0,error_rp,0.0005693268,error_yaw,0.001651979,,Len,36
2014-11-13T12:41:14.707,FE, 3,3B, 1, 1,A5,mavlink_hwstatus_t,Vcc,4918,I2Cerr,0,,Len,11
2014-11-13T12:41:14.707,FE, C,3C, 1, 1, 2,mavlink_system_time_t,time_unix_usec,0,time_boot_ms,734924,,Len,20
2014-11-13T12:41:14.723,FE,1C,3D, 1, 1,1E,mavlink_attitude_t,time_boot_ms,734965,roll,-0.09069794,pitch,0.06083719,yaw,0.9630056,rollspeed,1.244206E-05,pitchspeed,-0.0005481892,yawspeed,0.0005398486,,Len,36
2014-11-13T12:41:14.723,FE,14,3E, 1, 1,4A,mavlink_vfr_hud_t,airspeed,0,groundspeed,0,alt,0.65,climb,0,heading,55,throttle,16,,Len,28
2014-11-13T12:41:14.770,FE,1C,3F, 1, 1,1E,mavlink_attitude_t,time_boot_ms,735083,roll,-0.09067169,pitch,0.06082582,yaw,0.9630089,rollspeed,1.244206E-05,pitchspeed,-0.0005481892,yawspeed,-0.0002583163,,Len,36
2014-11-13T12:41:14.770,FE,14,40, 1, 1,4A,mavlink_vfr_hud_t,airspeed,0,groundspeed,0,alt,0.78,climb,0,heading,55,throttle,16,,Len,28
2014-11-13T12:41:14.892,FE,1C,41, 1, 1,1E,mavlink_attitude_t,time_boot_ms,735202,roll,-0.09066835,pitch,0.06077632,yaw,0.9629968,rollspeed,1.244206E-05,pitchspeed,-0.0005481892,yawspeed,-0.0002583163,,Len,36
2014-11-13T12:41:14.893,FE,1C,42, 1, 1,21,mavlink_global_position_int_t,time_boot_ms,735222,lat,0,lon,0,alt,-17000,relative_alt,710,vx,0,vy,0,vz,0,hdg,5517,,Len,36
2014-11-13T12:41:14.908,FE,14,43, 1, 1,4A,mavlink_vfr_hud_t,airspeed,0,groundspeed,0,alt,0.71,climb,0,heading,55,throttle,16,,Len,28
2014-11-13T12:41:14.925,FE,33,44, 1, 1,FD,mavlink_statustext_t,severity,1,text,ArduRover v2.46 (5ca3c4ba),,Len,59
2014-11-13T12:41:14.940,FE,1A,45, 1, 1,1B,mavlink_raw_imu_t,time_usec,735323956,xacc,59,yacc,87,zacc,-956,xgyro,0,ygyro,-1,zgyro,0,xmag,93,ymag,-157,zmag,121,,Len,34
2014-11-13T12:41:14.966,FE,1C,46, 1, 1,1E,mavlink_attitude_t,time_boot_ms,735342,roll,-0.0906693,pitch,0.06082297,yaw,0.9629731,rollspeed,1.244206E-05,pitchspeed,0.0005160294,yawspeed,-0.0002583163,,Len,36
2014-11-13T12:41:14.966,FE,1F,47, 1, 1, 1,mavlink_sys_status_t,onboard_control_sensors_present,2153511,onboard_control_sensors_enabled,2097191,onboard_control_sensors_health,2153479,load,389,voltage_battery,0,current_battery,-1,drop_rate_comm,0,errors_comm,0,errors_count1,0,errors_count2,0,errors_count3,0,errors_count4,0,battery_remaining,255,,Len,39
2014-11-13T12:41:14.967,FE, 4,48, 1, 1,98,mavlink_meminfo_t,brkval,6112,freemem,2048,,Len,12
2014-11-13T12:41:14.982,FE, 2,49, 1, 1,2A,mavlink_mission_current_t,seq,0,,Len,10
2014-11-13T12:41:14.998,FE,1E,4A, 1, 1,18,mavlink_gps_raw_int_t,time_usec,0,lat,0,lon,0,alt,-17000,eph,9999,epv,65535,vel,0,cog,0,fix_type,1,satellites_visible,0,,Len,38
2014-11-13T12:41:14.998,FE,14,4B, 1, 1,4A,mavlink_vfr_hud_t,airspeed,0,groundspeed,0,alt,0.74,climb,0,heading,55,throttle,16,,Len,28
2014-11-13T12:41:15.041,FE, 9,16,FF,BE, 0,mavlink_heartbeat_t,custom_mode,0,type,6,autopilot,8,base_mode,0,system_status,0,mavlink_version,3,,Len,17
2014-11-13T12:41:15.078,FE, 9,65,33,44,A6,mavlink_radio_t,rxerrors,1,fixed,0,rssi,171,remrssi,177,txbuf,100,noise,37,remnoise,21,,Len,17
2014-11-13T12:41:15.094,FE, 9,65,33,44,6D,mavlink_radio_status_t,rxerrors,1,fixed,0,rssi,171,remrssi,177,txbuf,100,noise,37,remnoise,21,,Len,17
2014-11-13T12:41:15.142,FE,19,4C, 1, 1,16,mavlink_param_value_t,param_value,16,param_count,247,param_index,0,param_id,FORMAT_VERSION,param_type,4,,Len,33
2014-11-13T12:41:15.158,FE,19,4D, 1, 1,16,mavlink_param_value_t,param_value,20,param_count,247,param_index,1,param_id,SYSID_SW_TYPE,param_type,2,,Len,33
2014-11-13T12:41:15.159,FE,19,4E, 1, 1,16,mavlink_param_value_t,param_value,16254,param_count,247,param_index,2,param_id,LOG_BITMASK,param_type,6,,Len,33
2014-11-13T12:41:15.174,FE,15,4F, 1, 1,24,mavlink_servo_output_raw_t,time_usec,735423185,servo1_raw,1520,servo2_raw,1499,servo3_raw,1516,servo4_raw,1498,servo5_raw,1553,servo6_raw,1499,servo7_raw,967,servo8_raw,2073,port,0,,Len,29
2014-11-13T12:41:15.190,FE,16,50, 1, 1,23,mavlink_rc_channels_raw_t,time_boot_ms,735423,chan1_raw,1520,chan2_raw,1499,chan3_raw,1516,chan4_raw,1499,chan5_raw,1553,chan6_raw,1499,chan7_raw,967,chan8_raw,2073,port,0,rssi,0,,Len,30
2014-11-13T12:41:15.190,FE,1C,51, 1, 1,A3,mavlink_ahrs_t,omegaIx,-0.0009453599,omegaIy,0.001327502,omegaIz,-0.0006307932,accel_weight,0,renorm_val,0,error_rp,0.0007779411,error_yaw,0.0003439808,,Len,36
2014-11-13T12:41:15.190,FE, 3,52, 1, 1,A5,mavlink_hwstatus_t,Vcc,4918,I2Cerr,0,,Len,11
2014-11-13T12:41:15.237,FE, C,53, 1, 1, 2,mavlink_system_time_t,time_unix_usec,0,time_boot_ms,735465,,Len,20
2014-11-13T12:41:15.238,FE,19,54, 1, 1,16,mavlink_param_value_t,param_value,43,param_count,247,param_index,3,param_id,SYS_NUM_RESETS,param_type,4,,Len,33
2014-11-13T12:41:15.240,FE,19,55, 1, 1,16,mavlink_param_value_t,param_value,0,param_count,247,param_index,4,param_id,RST_SWITCH_CH,param_type,2,,Len,33
2014-11-13T12:41:15.333,FE,19,56, 1, 1,16,mavlink_param_value_t,param_value,0,param_count,247,param_index,5,param_id,INITIAL_MODE,param_type,2,,Len,33
2014-11-13T12:41:15.349,FE,1C,57, 1, 1,21,mavlink_global_position_int_t,time_boot_ms,735583,lat,0,lon,0,alt,-17000,relative_alt,700,vx,0,vy,0,vz,0,hdg,5517,,Len,36
2014-11-13T12:41:15.391,FE,19,58, 1, 1,16,mavlink_param_value_t,param_value,-1,param_count,247,param_index,6,param_id,RSSI_PIN,param_type,2,,Len,33
2014-11-13T12:41:15.393,FE,19,59, 1, 1,16,mavlink_param_value_t,param_value,1,param_count,247,param_index,7,param_id,SYSID_THISMAV,param_type,4,,Len,33
2014-11-13T12:41:15.395,FE,19,5A, 1, 1,16,mavlink_param_value_t,param_value,255,param_count,247,param_index,8,param_id,SYSID_MYGCS,param_type,4,,Len,33
2014-11-13T12:41:15.420,FE,19,5B, 1, 1,16,mavlink_param_value_t,param_value,115,param_count,247,param_index,9,param_id,SERIAL0_BAUD,param_type,4,,Len,33
2014-11-13T12:41:15.421,FE,19,5C, 1, 1,16,mavlink_param_value_t,param_value,57,param_count,247,param_index,10,param_id,SERIAL1_BAUD,param_type,4,,Len,33
2014-11-13T12:41:15.422,FE,19,5D, 1, 1,16,mavlink_param_value_t,param_value,0,param_count,247,param_index,11,param_id,TELEM_DELAY,param_type,2,,Len,33
2014-11-13T12:41:15.465,FE,1C,5E, 1, 1,1E,mavlink_attitude_t,time_boot_ms,735766,roll,-0.0906747,pitch,0.06096176,yaw,0.9628978,rollspeed,1.244206E-05,pitchspeed,0.0005160294,yawspeed,-0.0002583163,,Len,36
2014-11-13T12:41:15.466,FE,14,5F, 1, 1,4A,mavlink_vfr_hud_t,airspeed,0,groundspeed,0,alt,0.7,climb,0,heading,55,throttle,16,,Len,28
2014-11-13T12:41:15.466,FE, 9,60, 1, 1, 0,mavlink_heartbeat_t,custom_mode,0,type,10,autopilot,3,base_mode,193,system_status,4,mavlink_version,3,,Len,17
2014-11-13T12:41:15.507,FE,19,61, 1, 1,16,mavlink_param_value_t,param_value,0,param_count,247,param_index,12,param_id,SKIP_GYRO_CAL,param_type,2,,Len,33
2014-11-13T12:41:15.509,FE,19,62, 1, 1,16,mavlink_param_value_t,param_value,1,param_count,247,param_index,13,param_id,MAG_ENABLE,param_type,2,,Len,33
2014-11-13T12:41:15.510,FE,19,63, 1, 1,16,mavlink_param_value_t,param_value,-1,param_count,247,param_index,14,param_id,AUTO_TRIGGER_PIN,param_type,2,,Len,33
2014-11-13T12:41:15.571,FE,19,64, 1, 1,16,mavlink_param_value_t,param_value,0,param_count,247,param_index,15,param_id,AUTO_KICKSTART,param_type,9,,Len,33
2014-11-13T12:41:15.683,FE,19,65, 1, 1,16,mavlink_param_value_t,param_value,5,param_count,247,param_index,16,param_id,CRUISE_SPEED,param_type,9,,Len,33
2014-11-13T12:41:15.699,FE,19,66, 1, 1,16,mavlink_param_value_t,param_value,50,param_count,247,param_index,17,param_id,SPEED_TURN_GAIN,param_type,2,,Len,33
2014-11-13T12:41:15.701,FE,19,67, 1, 1,16,mavlink_param_value_t,param_value,2,param_count,247,param_index,18,param_id,SPEED_TURN_DIST,param_type,9,,Len,33
2014-11-13T12:41:15.741,FE,19,68, 1, 1,16,mavlink_param_value_t,param_value,0,param_count,247,param_index,19,param_id,BRAKING_PERCENT,param_type,2,,Len,33
2014-11-13T12:41:15.742,FE,19,69, 1, 1,16,mavlink_param_value_t,param_value,3,param_count,247,param_index,20,param_id,BRAKING_SPEEDERR,param_type,9,,Len,33
2014-11-13T12:41:15.748,FE,1C,6A, 1, 1,1E,mavlink_attitude_t,time_boot_ms,736184,roll,-0.09066306,pitch,0.06100698,yaw,0.962925,rollspeed,1.244206E-05,pitchspeed,0.0005160294,yawspeed,0.0005398486,,Len,36
2014-11-13T12:41:15.789,FE,14,6B, 1, 1,4A,mavlink_vfr_hud_t,airspeed,0,groundspeed,0,alt,0.66,climb,0,heading,55,throttle,16,,Len,28
2014-11-13T12:41:15.805,FE,19,6C, 1, 1,16,mavlink_param_value_t,param_value,30,param_count,247,param_index,21,param_id,PIVOT_TURN_ANGLE,param_type,4,,Len,33
2014-11-13T12:41:15.929,FE,19,6D, 1, 1,16,mavlink_param_value_t,param_value,1,param_count,247,param_index,22,param_id,CH7_OPTION,param_type,2,,Len,33
2014-11-13T12:41:15.931,FE,19,6E, 1, 1,16,mavlink_param_value_t,param_value,1091,param_count,247,param_index,23,param_id,RC1_MIN,param_type,4,,Len,33
2014-11-13T12:41:15.933,FE,19,6F, 1, 1,16,mavlink_param_value_t,param_value,1426,param_count,247,param_index,24,param_id,RC1_TRIM,param_type,4,,Len,33
2014-11-13T12:41:15.935,FE,19,70, 1, 1,16,mavlink_param_value_t,param_value,1919,param_count,247,param_index,25,param_id,RC1_MAX,param_type,4,,Len,33
2014-11-13T12:41:15.949,FE,19,71, 1, 1,16,mavlink_param_value_t,param_value,-1,param_count,247,param_index,26,param_id,RC1_REV,param_type,2,,Len,33
2014-11-13T12:41:16.039,FE,19,72, 1, 1,16,mavlink_param_value_t,param_value,30,param_count,247,param_index,27,param_id,RC1_DZ,param_type,4,,Len,33
2014-11-13T12:41:16.041,FE,19,73, 1, 1,16,mavlink_param_value_t,param_value,1498,param_count,247,param_index,28,param_id,RC2_MIN,param_type,4,,Len,33
2014-11-13T12:41:16.052,FE, 9,17,FF,BE, 0,mavlink_heartbeat_t,custom_mode,0,type,6,autopilot,8,base_mode,0,system_status,0,mavlink_version,3,,Len,17
2014-11-13T12:41:16.161,FE,19,74, 1, 1,16,mavlink_param_value_t,param_value,1499,param_count,247,param_index,29,param_id,RC2_TRIM,param_type,4,,Len,33
2014-11-13T12:41:16.163,FE,19,75, 1, 1,16,mavlink_param_value_t,param_value,1499,param_count,247,param_index,30,param_id,RC2_MAX,param_type,4,,Len,33
2014-11-13T12:41:16.164,FE,19,76, 1, 1,16,mavlink_param_value_t,param_value,1,param_count,247,param_index,31,param_id,RC2_REV,param_type,2,,Len,33
2014-11-13T12:41:16.193,FE,19,77, 1, 1,16,mavlink_param_value_t,param_value,0,param_count,247,param_index,32,param_id,RC2_DZ,param_type,4,,Len,33
2014-11-13T12:41:16.195,FE,1C,78, 1, 1,1E,mavlink_attitude_t,time_boot_ms,736644,roll,-0.09065197,pitch,0.06101738,yaw,0.963003,rollspeed,1.244206E-05,pitchspeed,-0.0002821364,yawspeed,-0.0002583163,,Len,36
2014-11-13T12:41:16.195,FE,14,79, 1, 1,4A,mavlink_vfr_hud_t,airspeed,0,groundspeed,0,alt,0.64,climb,0,heading,55,throttle,16,,Len,28
2014-11-13T12:41:16.239,FE, 9,66,33,44,A6,mavlink_radio_t,rxerrors,1,fixed,0,rssi,171,remrssi,179,txbuf,100,noise,38,remnoise,22,,Len,17
2014-11-13T12:41:16.239,FE, 9,66,33,44,6D,mavlink_radio_status_t,rxerrors,1,fixed,0,rssi,171,remrssi,179,txbuf,100,noise,38,remnoise,22,,Len,17
2014-11-13T12:41:16.287,FE,19,7A, 1, 1,16,mavlink_param_value_t,param_value,0,param_count,247,param_index,33,param_id,RC2_FUNCTION,param_type,2,,Len,33
2014-11-13T12:41:16.304,FE,19,7B, 1, 1,16,mavlink_param_value_t,param_value,1224,param_count,247,param_index,34,param_id,RC3_MIN,param_type,4,,Len,33
2014-11-13T12:41:16.306,FE,19,7C, 1, 1,16,mavlink_param_value_t,param_value,1232,param_count,247,param_index,35,param_id,RC3_TRIM,param_type,4,,Len,33
2014-11-13T12:41:16.393,FE,19,7D, 1, 1,16,mavlink_param_value_t,param_value,1923,param_count,247,param_index,36,param_id,RC3_MAX,param_type,4,,Len,33
2014-11-13T12:41:16.395,FE,19,7E, 1, 1,16,mavlink_param_value_t,param_value,1,param_count,247,param_index,37,param_id,RC3_REV,param_type,2,,Len,33
2014-11-13T12:41:16.397,FE,19,7F, 1, 1,16,mavlink_param_value_t,param_value,30,param_count,247,param_index,38,param_id,RC3_DZ,param_type,4,,Len,33
2014-11-13T12:41:16.409,FE, 9,80, 1, 1, 0,mavlink_heartbeat_t,custom_mode,0,type,10,autopilot,3,base_mode,193,system_status,4,mavlink_version,3,,Len,17
2014-11-13T12:41:16.425,FE,1C,81, 1, 1,21,mavlink_global_position_int_t,time_boot_ms,736926,lat,0,lon,0,alt,-17000,relative_alt,700,vx,0,vy,0,vz,0,hdg,5517,,Len,36
2014-11-13T12:41:16.489,FE,19,82, 1, 1,16,mavlink_param_value_t,param_value,1498,param_count,247,param_index,39,param_id,RC4_MIN,param_type,4,,Len,33
2014-11-13T12:41:16.491,FE,19,83, 1, 1,16,mavlink_param_value_t,param_value,1499,param_count,247,param_index,40,param_id,RC4_TRIM,param_type,4,,Len,33
2014-11-13T12:41:16.601,FE,19,84, 1, 1,16,mavlink_param_value_t,param_value,1499,param_count,247,param_index,41,param_id,RC4_MAX,param_type,4,,Len,33
2014-11-13T12:41:16.617,FE,1C,85, 1, 1,1E,mavlink_attitude_t,time_boot_ms,737025,roll,-0.09067533,pitch,0.06099876,yaw,0.9628847,rollspeed,9.194715E-06,pitchspeed,0.0002724656,yawspeed,-0.0002480226,,Len,36
2014-11-13T12:41:16.617,FE,14,86, 1, 1,4A,mavlink_vfr_hud_t,airspeed,0,groundspeed,0,alt,0.79,climb,0,heading,55,throttle,16,,Len,28
2014-11-13T12:41:16.632,FE,19,87, 1, 1,16,mavlink_param_value_t,param_value,1,param_count,247,param_index,42,param_id,RC4_REV,param_type,2,,Len,33
2014-11-13T12:41:16.649,FE,19,88, 1, 1,16,mavlink_param_value_t,param_value,0,param_count,247,param_index,43,param_id,RC4_DZ,param_type,4,,Len,33
2014-11-13T12:41:16.650,FE,19,89, 1, 1,16,mavlink_param_value_t,param_value,0,param_count,247,param_index,44,param_id,RC4_FUNCTION,param_type,2,,Len,33
2014-11-13T12:41:16.713,FE,19,8A, 1, 1,16,mavlink_param_value_t,param_value,1553,param_count,247,param_index,45,param_id,RC5_MIN,param_type,4,,Len,33
2014-11-13T12:41:16.839,FE,19,8B, 1, 1,16,mavlink_param_value_t,param_value,1553,param_count,247,param_index,46,param_id,RC5_TRIM,param_type,4,,Len,33
2014-11-13T12:41:16.841,FE,19,8C, 1, 1,16,mavlink_param_value_t,param_value,1554,param_count,247,param_index,47,param_id,RC5_MAX,param_type,4,,Len,33
2014-11-13T12:41:16.855,FE,19,8D, 1, 1,16,mavlink_param_value_t,param_value,1,param_count,247,param_index,48,param_id,RC5_REV,param_type,2,,Len,33
2014-11-13T12:41:16.880,FE,19,8E, 1, 1,16,mavlink_param_value_t,param_value,0,param_count,247,param_index,49,param_id,RC5_DZ,param_type,4,,Len,33
2014-11-13T12:41:16.881,FE,19,8F, 1, 1,16,mavlink_param_value_t,param_value,0,param_count,247,param_index,50,param_id,RC5_FUNCTION,param_type,2,,Len,33
2014-11-13T12:41:16.908,FE,1A,90, 1, 1,1B,mavlink_raw_imu_t,time_usec,737345937,xacc,58,yacc,87,zacc,-958,xgyro,0,ygyro,-1,zgyro,0,xmag,94,ymag,-157,zmag,120,,Len,34
2014-11-13T12:41:16.908,FE,1F,91, 1, 1, 1,mavlink_sys_status_t,onboard_control_sensors_present,2153511,onboard_control_sensors_enabled,2097191,onboard_control_sensors_health,2153479,load,392,voltage_battery,0,current_battery,-1,drop_rate_comm,0,errors_comm,0,errors_count1,0,errors_count2,0,errors_count3,0,errors_count4,0,battery_remaining,255,,Len,39
2014-11-13T12:41:16.909,FE, 4,92, 1, 1,98,mavlink_meminfo_t,brkval,6112,freemem,2048,,Len,12
2014-11-13T12:41:16.909,FE, 2,93, 1, 1,2A,mavlink_mission_current_t,seq,0,,Len,10
2014-11-13T12:41:16.940,FE,1E,94, 1, 1,18,mavlink_gps_raw_int_t,time_usec,0,lat,0,lon,0,alt,-17000,eph,9999,epv,65535,vel,0,cog,0,fix_type,1,satellites_visible,0,,Len,38
2014-11-13T12:41:17.062,FE, 9,18,FF,BE, 0,mavlink_heartbeat_t,custom_mode,0,type,6,autopilot,8,base_mode,0,system_status,0,mavlink_version,3,,Len,17
2014-11-13T12:41:17.080,FE,19,95, 1, 1,16,mavlink_param_value_t,param_value,1498,param_count,247,param_index,51,param_id,RC6_MIN,param_type,4,,Len,33
2014-11-13T12:41:17.081,FE,19,96, 1, 1,16,mavlink_param_value_t,param_value,1499,param_count,247,param_index,52,param_id,RC6_TRIM,param_type,4,,Len,33
2014-11-13T12:41:17.083,FE,19,97, 1, 1,16,mavlink_param_value_t,param_value,1499,param_count,247,param_index,53,param_id,RC6_MAX,param_type,4,,Len,33
2014-11-13T12:41:17.095,FE,15,98, 1, 1,24,mavlink_servo_output_raw_t,time_usec,737447519,servo1_raw,1520,servo2_raw,1499,servo3_raw,1516,servo4_raw,1498,servo5_raw,1553,servo6_raw,1499,servo7_raw,967,servo8_raw,2073,port,0,,Len,29
2014-11-13T12:41:17.099,FE,16,99, 1, 1,23,mavlink_rc_channels_raw_t,time_boot_ms,737468,chan1_raw,1520,chan2_raw,1499,chan3_raw,1516,chan4_raw,1499,chan5_raw,1553,chan6_raw,1499,chan7_raw,967,chan8_raw,2073,port,0,rssi,0,,Len,30
2014-11-13T12:41:17.115,FE,1C,9A, 1, 1,1E,mavlink_attitude_t,time_boot_ms,737468,roll,-0.09072882,pitch,0.06111401,yaw,0.962912,rollspeed,9.194715E-06,pitchspeed,6.412854E-06,yawspeed,-0.0002480226,,Len,36
2014-11-13T12:41:17.141,FE,14,9B, 1, 1,4A,mavlink_vfr_hud_t,airspeed,0,groundspeed,0,alt,0.75,climb,0,heading,55,throttle,16,,Len,28
2014-11-13T12:41:17.141,FE,1C,9C, 1, 1,A3,mavlink_ahrs_t,omegaIx,-0.0009486072,omegaIy,0.001349995,omegaIz,-0.0006204995,accel_weight,0,renorm_val,0,error_rp,0.0005145107,error_yaw,0.001660438,,Len,36
2014-11-13T12:41:17.142,FE, 3,9D, 1, 1,A5,mavlink_hwstatus_t,Vcc,4940,I2Cerr,0,,Len,11
2014-11-13T12:41:17.142,FE, C,9E, 1, 1, 2,mavlink_system_time_t,time_unix_usec,0,time_boot_ms,737527,,Len,20
2014-11-13T12:41:17.157,FE, 9,67,33,44,A6,mavlink_radio_t,rxerrors,1,fixed,0,rssi,170,remrssi,179,txbuf,100,noise,44,remnoise,21,,Len,17
2014-11-13T12:41:17.157,FE, 9,67,33,44,6D,mavlink_radio_status_t,rxerrors,1,fixed,0,rssi,170,remrssi,179,txbuf,100,noise,44,remnoise,21,,Len,17
2014-11-13T12:41:17.231,FE,19,9F, 1, 1,16,mavlink_param_value_t,param_value,1,param_count,247,param_index,54,param_id,RC6_REV,param_type,2,,Len,33
2014-11-13T12:41:17.233,FE,19,A0, 1, 1,16,mavlink_param_value_t,param_value,0,param_count,247,param_index,55,param_id,RC6_DZ,param_type,4,,Len,33
2014-11-13T12:41:17.235,FE,19,A1, 1, 1,16,mavlink_param_value_t,param_value,0,param_count,247,param_index,56,param_id,RC6_FUNCTION,param_type,2,,Len,33
2014-11-13T12:41:17.258,FE,19,A2, 1, 1,16,mavlink_param_value_t,param_value,966,param_count,247,param_index,57,param_id,RC7_MIN,param_type,4,,Len,33
2014-11-13T12:41:17.259,FE,19,A3, 1, 1,16,mavlink_param_value_t,param_value,967,param_count,247,param_index,58,param_id,RC7_TRIM,param_type,4,,Len,33
2014-11-13T12:41:17.260,FE,19,A4, 1, 1,16,mavlink_param_value_t,param_value,2073,param_count,247,param_index,59,param_id,RC7_MAX,param_type,4,,Len,33
2014-11-13T12:41:17.306,FE,19,A5, 1, 1,16,mavlink_param_value_t,param_value,1,param_count,247,param_index,60,param_id,RC7_REV,param_type,2,,Len,33
2014-11-13T12:41:17.338,FE,19,A6, 1, 1,16,mavlink_param_value_t,param_value,0,param_count,247,param_index,61,param_id,RC7_DZ,param_type,4,,Len,33
2014-11-13T12:41:17.340,FE,19,A7, 1, 1,16,mavlink_param_value_t,param_value,0,param_count,247,param_index,62,param_id,RC7_FUNCTION,param_type,2,,Len,33
2014-11-13T12:41:17.354,FE, 9,A8, 1, 1, 0,mavlink_heartbeat_t,custom_mode,0,type,10,autopilot,3,base_mode,193,system_status,4,mavlink_version,3,,Len,17
2014-11-13T12:41:17.403,FE,1C,A9, 1, 1,1E,mavlink_attitude_t,time_boot_ms,737889,roll,-0.09072877,pitch,0.0611145,yaw,0.96284,rollspeed,9.194715E-06,pitchspeed,0.0005385221,yawspeed,1.803203E-05,,Len,36
2014-11-13T12:41:17.541,FE,19,AA, 1, 1,16,mavlink_param_value_t,param_value,966,param_count,247,param_index,63,param_id,RC8_MIN,param_type,4,,Len,33
2014-11-13T12:41:17.543,FE,19,AB, 1, 1,16,mavlink_param_value_t,param_value,2073,param_count,247,param_index,64,param_id,RC8_TRIM,param_type,4,,Len,33
2014-11-13T12:41:17.545,FE,19,AC, 1, 1,16,mavlink_param_value_t,param_value,2073,param_count,247,param_index,65,param_id,RC8_MAX,param_type,4,,Len,33
2014-11-13T12:41:17.600,FE,14,AD, 1, 1,4A,mavlink_vfr_hud_t,airspeed,0,groundspeed,0,alt,0.8,climb,0,heading,55,throttle,16,,Len,28
2014-11-13T12:41:17.601,FE,19,AE, 1, 1,16,mavlink_param_value_t,param_value,1,param_count,247,param_index,66,param_id,RC8_REV,param_type,2,,Len,33
2014-11-13T12:41:17.603,FE,19,AF, 1, 1,16,mavlink_param_value_t,param_value,0,param_count,247,param_index,67,param_id,RC8_DZ,param_type,4,,Len,33
2014-11-13T12:41:17.632,FE,19,B0, 1, 1,16,mavlink_param_value_t,param_value,0,param_count,247,param_index,68,param_id,RC8_FUNCTION,param_type,2,,Len,33
2014-11-13T12:41:17.770,FE,19,B1, 1, 1,16,mavlink_param_value_t,param_value,1100,param_count,247,param_index,69,param_id,RC10_MIN,param_type,4,,Len,33
2014-11-13T12:41:17.776,FE,19,B2, 1, 1,16,mavlink_param_value_t,param_value,1500,param_count,247,param_index,70,param_id,RC10_TRIM,param_type,4,,Len,33
2014-11-13T12:41:17.778,FE,19,B3, 1, 1,16,mavlink_param_value_t,param_value,1900,param_count,247,param_index,71,param_id,RC10_MAX,param_type,4,,Len,33
2014-11-13T12:41:17.832,FE,1C,B4, 1, 1,21,mavlink_global_position_int_t,time_boot_ms,738270,lat,0,lon,0,alt,-17000,relative_alt,780,vx,0,vy,0,vz,0,hdg,5516,,Len,36
2014-11-13T12:41:17.832,FE,19,B5, 1, 1,16,mavlink_param_value_t,param_value,1,param_count,247,param_index,72,param_id,RC10_REV,param_type,2,,Len,33
2014-11-13T12:41:17.835,FE,19,B6, 1, 1,16,mavlink_param_value_t,param_value,0,param_count,247,param_index,73,param_id,RC10_DZ,param_type,4,,Len,33
2014-11-13T12:41:17.861,FE,19,B7, 1, 1,16,mavlink_param_value_t,param_value,0,param_count,247,param_index,74,param_id,RC10_FUNCTION,param_type,2,,Len,33
2014-11-13T12:41:17.877,FE,1C,B8, 1, 1,1E,mavlink_attitude_t,time_boot_ms,738308,roll,-0.09074261,pitch,0.06113194,yaw,0.9628035,rollspeed,9.194715E-06,pitchspeed,0.0005385221,yawspeed,1.803203E-05,,Len,36
2014-11-13T12:41:17.893,FE,14,B9, 1, 1,4A,mavlink_vfr_hud_t,airspeed,0,groundspeed,0,alt,0.78,climb,0,heading,55,throttle,16,,Len,28
2014-11-13T12:41:17.938,FE,19,BA, 1, 1,16,mavlink_param_value_t,param_value,1100,param_count,247,param_index,75,param_id,RC11_MIN,param_type,4,,Len,33
2014-11-13T12:41:17.940,FE,19,BB, 1, 1,16,mavlink_param_value_t,param_value,1500,param_count,247,param_index,76,param_id,RC11_TRIM,param_type,4,,Len,33
2014-11-13T12:41:17.941,FE,19,BC, 1, 1,16,mavlink_param_value_t,param_value,1900,param_count,247,param_index,77,param_id,RC11_MAX,param_type,4,,Len,33
2014-11-13T12:41:18.072,FE, 9,19,FF,BE, 0,mavlink_heartbeat_t,custom_mode,0,type,6,autopilot,8,base_mode,0,system_status,0,mavlink_version,3,,Len,17
2014-11-13T12:41:18.082,FE,19,BD, 1, 1,16,mavlink_param_value_t,param_value,1,param_count,247,param_index,78,param_id,RC11_REV,param_type,2,,Len,33
2014-11-13T12:41:18.210,FE,19,BE, 1, 1,16,mavlink_param_value_t,param_value,0,param_count,247,param_index,79,param_id,RC11_DZ,param_type,4,,Len,33
2014-11-13T12:41:18.226,FE,19,BF, 1, 1,16,mavlink_param_value_t,param_value,0,param_count,247,param_index,80,param_id,RC11_FUNCTION,param_type,2,,Len,33
2014-11-13T12:41:18.228,FE,19,C0, 1, 1,16,mavlink_param_value_t,param_value,0,param_count,247,param_index,81,param_id,THR_MIN,param_type,2,,Len,33
2014-11-13T12:41:18.240,FE,19,C1, 1, 1,16,mavlink_param_value_t,param_value,100,param_count,247,param_index,82,param_id,THR_MAX,param_type,2,,Len,33
2014-11-13T12:41:18.242,FE,19,C2, 1, 1,16,mavlink_param_value_t,param_value,20,param_count,247,param_index,83,param_id,CRUISE_THROTTLE,param_type,2,,Len,33
2014-11-13T12:41:18.255,FE,1C,C3, 1, 1,1E,mavlink_attitude_t,time_boot_ms,738728,roll,-0.09076349,pitch,0.06115228,yaw,0.9628367,rollspeed,9.194715E-06,pitchspeed,0.0005385221,yawspeed,-0.0002480226,,Len,36
2014-11-13T12:41:18.271,FE,19,C4, 1, 1,16,mavlink_param_value_t,param_value,100,param_count,247,param_index,84,param_id,THR_SLEWRATE,param_type,2,,Len,33
2014-11-13T12:41:18.303,FE, 9,68,33,44,A6,mavlink_radio_t,rxerrors,1,fixed,0,rssi,172,remrssi,180,txbuf,100,noise,45,remnoise,20,,Len,17
2014-11-13T12:41:18.303,FE, 9,68,33,44,6D,mavlink_radio_status_t,rxerrors,1,fixed,0,rssi,172,remrssi,180,txbuf,100,noise,45,remnoise,20,,Len,17
2014-11-13T12:41:18.335,FE,19,C5, 1, 1,16,mavlink_param_value_t,param_value,0,param_count,247,param_index,85,param_id,SKID_STEER_OUT,param_type,2,,Len,33
2014-11-13T12:41:18.351,FE,19,C6, 1, 1,16,mavlink_param_value_t,param_value,0,param_count,247,param_index,86,param_id,SKID_STEER_IN,param_type,2,,Len,33
2014-11-13T12:41:18.367,FE,14,C7, 1, 1,4A,mavlink_vfr_hud_t,airspeed,0,groundspeed,0,alt,0.77,climb,0,heading,55,throttle,16,,Len,28
2014-11-13T12:41:18.399,FE, 9,C8, 1, 1, 0,mavlink_heartbeat_t,custom_mode,0,type,10,autopilot,3,base_mode,193,system_status,4,mavlink_version,3,,Len,17
2014-11-13T12:41:18.399,FE,19,C9, 1, 1,16,mavlink_param_value_t,param_value,2,param_count,247,param_index,87,param_id,FS_ACTION,param_type,2,,Len,33
2014-11-13T12:41:18.445,FE,19,CA, 1, 1,16,mavlink_param_value_t,param_value,5,param_count,247,param_index,88,param_id,FS_TIMEOUT,param_type,9,,Len,33
2014-11-13T12:41:18.447,FE,19,CB, 1, 1,16,mavlink_param_value_t,param_value,1,param_count,247,param_index,89,param_id,FS_THR_ENABLE,param_type,2,,Len,33
2014-11-13T12:41:18.557,FE,19,CC, 1, 1,16,mavlink_param_value_t,param_value,910,param_count,247,param_index,90,param_id,FS_THR_VALUE,param_type,4,,Len,33
2014-11-13T12:41:18.559,FE,19,CD, 1, 1,16,mavlink_param_value_t,param_value,0,param_count,247,param_index,91,param_id,FS_GCS_ENABLE,param_type,2,,Len,33
2014-11-13T12:41:18.670,FE,19,CE, 1, 1,16,mavlink_param_value_t,param_value,100,param_count,247,param_index,92,param_id,RNGFND_TRIGGR_CM,param_type,4,,Len,33
2014-11-13T12:41:18.685,FE,19,CF, 1, 1,16,mavlink_param_value_t,param_value,45,param_count,247,param_index,93,param_id,RNGFND_TURN_ANGL,param_type,9,,Len,33
2014-11-13T12:41:18.687,FE,19,D0, 1, 1,16,mavlink_param_value_t,param_value,1,param_count,247,param_index,94,param_id,RNGFND_TURN_TIME,param_type,9,,Len,33
2014-11-13T12:41:18.693,FE,19,D1, 1, 1,16,mavlink_param_value_t,param_value,2,param_count,247,param_index,95,param_id,RNGFND_DEBOUNCE,param_type,2,,Len,33
2014-11-13T12:41:18.708,FE,1C,D2, 1, 1,1E,mavlink_attitude_t,time_boot_ms,739150,roll,-0.09075814,pitch,0.06111965,yaw,0.963082,rollspeed,9.194715E-06,pitchspeed,-0.0005256964,yawspeed,1.803203E-05,,Len,36
2014-11-13T12:41:18.725,FE,14,D3, 1, 1,4A,mavlink_vfr_hud_t,airspeed,0,groundspeed,0,alt,0.72,climb,0,heading,55,throttle,16,,Len,28
2014-11-13T12:41:18.773,FE,19,D4, 1, 1,16,mavlink_param_value_t,param_value,7,param_count,247,param_index,96,param_id,LEARN_CH,param_type,2,,Len,33
2014-11-13T12:41:18.914,FE,19,D5, 1, 1,16,mavlink_param_value_t,param_value,8,param_count,247,param_index,97,param_id,MODE_CH,param_type,2,,Len,33
2014-11-13T12:41:18.916,FE,19,D6, 1, 1,16,mavlink_param_value_t,param_value,10,param_count,247,param_index,98,param_id,MODE1,param_type,2,,Len,33
2014-11-13T12:41:18.917,FE,19,D7, 1, 1,16,mavlink_param_value_t,param_value,2,param_count,247,param_index,99,param_id,MODE2,param_type,2,,Len,33
2014-11-13T12:41:18.930,FE,19,D8, 1, 1,16,mavlink_param_value_t,param_value,2,param_count,247,param_index,100,param_id,MODE3,param_type,2,,Len,33
2014-11-13T12:41:18.932,FE,19,D9, 1, 1,16,mavlink_param_value_t,param_value,2,param_count,247,param_index,101,param_id,MODE4,param_type,2,,Len,33
2014-11-13T12:41:18.948,FE,1A,DA, 1, 1,1B,mavlink_raw_imu_t,time_usec,739373638,xacc,59,yacc,87,zacc,-957,xgyro,1,ygyro,0,zgyro,0,xmag,92,ymag,-156,zmag,120,,Len,34
2014-11-13T12:41:18.978,FE,1F,DB, 1, 1, 1,mavlink_sys_status_t,onboard_control_sensors_present,2153511,onboard_control_sensors_enabled,2097191,onboard_control_sensors_health,2153479,load,393,voltage_battery,0,current_battery,-1,drop_rate_comm,0,errors_comm,0,errors_count1,0,errors_count2,0,errors_count3,0,errors_count4,0,battery_remaining,255,,Len,39
2014-11-13T12:41:18.978,FE, 4,DC, 1, 1,98,mavlink_meminfo_t,brkval,6112,freemem,2048,,Len,12
2014-11-13T12:41:18.979,FE, 2,DD, 1, 1,2A,mavlink_mission_current_t,seq,0,,Len,10
2014-11-13T12:41:18.979,FE,1E,DE, 1, 1,18,mavlink_gps_raw_int_t,time_usec,0,lat,0,lon,0,alt,-17000,eph,9999,epv,65535,vel,0,cog,0,fix_type,1,satellites_visible,0,,Len,38
2014-11-13T12:41:19.010,FE,15,DF, 1, 1,24,mavlink_servo_output_raw_t,time_usec,739471354,servo1_raw,1520,servo2_raw,1499,servo3_raw,1516,servo4_raw,1498,servo5_raw,1553,servo6_raw,1499,servo7_raw,967,servo8_raw,2073,port,0,,Len,29
2014-11-13T12:41:19.011,FE,16,E0, 1, 1,23,mavlink_rc_channels_raw_t,time_boot_ms,739471,chan1_raw,1520,chan2_raw,1499,chan3_raw,1516,chan4_raw,1499,chan5_raw,1553,chan6_raw,1499,chan7_raw,967,chan8_raw,2073,port,0,rssi,0,,Len,30
2014-11-13T12:41:19.082,FE, 9,1A,FF,BE, 0,mavlink_heartbeat_t,custom_mode,0,type,6,autopilot,8,base_mode,0,system_status,0,mavlink_version,3,,Len,17
2014-11-13T12:41:19.148,FE,19,E1, 1, 1,16,mavlink_param_value_t,param_value,2,param_count,247,param_index,102,param_id,MODE5,param_type,2,,Len,33
2014-11-13T12:41:19.150,FE,19,E2, 1, 1,16,mavlink_param_value_t,param_value,0,param_count,247,param_index,103,param_id,MODE6,param_type,2,,Len,33
2014-11-13T12:41:19.152,FE,19,E3, 1, 1,16,mavlink_param_value_t,param_value,4,param_count,247,param_index,104,param_id,WP_RADIUS,param_type,9,,Len,33
2014-11-13T12:41:19.183,FE,1C,E4, 1, 1,A3,mavlink_ahrs_t,omegaIx,-0.0009486072,omegaIy,0.001349995,omegaIz,-0.0006204995,accel_weight,0,renorm_val,0,error_rp,0.000366961,error_yaw,0.001450381,,Len,36
2014-11-13T12:41:19.183,FE, 3,E5, 1, 1,A5,mavlink_hwstatus_t,Vcc,4940,I2Cerr,0,,Len,11
2014-11-13T12:41:19.183,FE, C,E6, 1, 1, 2,mavlink_system_time_t,time_unix_usec,0,time_boot_ms,739549,,Len,20
2014-11-13T12:41:19.184,FE,1C,E7, 1, 1,1E,mavlink_attitude_t,time_boot_ms,739571,roll,-0.09069474,pitch,0.06118913,yaw,0.9630709,rollspeed,0.000541304,pitchspeed,-0.0005256964,yawspeed,-0.0002480226,,Len,36
2014-11-13T12:41:19.209,FE,19,E8, 1, 1,16,mavlink_param_value_t,param_value,1,param_count,247,param_index,105,param_id,TURN_MAX_G,param_type,9,,Len,33
2014-11-13T12:41:19.211,FE,19,E9, 1, 1,16,mavlink_param_value_t,param_value,0.75,param_count,247,param_index,106,param_id,STEER2SRV_TCONST,param_type,9,,Len,33
2014-11-13T12:41:19.212,FE,19,EA, 1, 1,16,mavlink_param_value_t,param_value,0.5,param_count,247,param_index,107,param_id,STEER2SRV_P,param_type,9,,Len,33
2014-11-13T12:41:19.214,FE, 9,69,33,44,A6,mavlink_radio_t,rxerrors,1,fixed,0,rssi,169,remrssi,178,txbuf,100,noise,36,remnoise,22,,Len,17
2014-11-13T12:41:19.225,FE, 9,69,33,44,6D,mavlink_radio_status_t,rxerrors,1,fixed,0,rssi,169,remrssi,178,txbuf,100,noise,36,remnoise,22,,Len,17
2014-11-13T12:41:19.307,FE,1C,EB, 1, 1,21,mavlink_global_position_int_t,time_boot_ms,739610,lat,0,lon,0,alt,-17000,relative_alt,760,vx,0,vy,0,vz,0,hdg,5517,,Len,36
2014-11-13T12:41:19.307,FE,14,EC, 1, 1,4A,mavlink_vfr_hud_t,airspeed,0,groundspeed,0,alt,0.77,climb,0,heading,55,throttle,16,,Len,28
2014-11-13T12:41:19.307,FE,19,ED, 1, 1,16,mavlink_param_value_t,param_value,0.2,param_count,247,param_index,108,param_id,STEER2SRV_I,param_type,9,,Len,33
2014-11-13T12:41:19.309,FE,19,EE, 1, 1,16,mavlink_param_value_t,param_value,0.005,param_count,247,param_index,109,param_id,STEER2SRV_D,param_type,9,,Len,33
2014-11-13T12:41:19.311,FE,19,EF, 1, 1,16,mavlink_param_value_t,param_value,1500,param_count,247,param_index,110,param_id,STEER2SRV_IMAX,param_type,4,,Len,33
2014-11-13T12:41:19.371,FE,19,F0, 1, 1,16,mavlink_param_value_t,param_value,1,param_count,247,param_index,111,param_id,STEER2SRV_MINSPD,param_type,9,,Len,33
2014-11-13T12:41:19.415,FE,19,F1, 1, 1,16,mavlink_param_value_t,param_value,0.7,param_count,247,param_index,112,param_id,SPEED2THR_P,param_type,9,,Len,33
2014-11-13T12:41:19.417,FE,19,F2, 1, 1,16,mavlink_param_value_t,param_value,0.2,param_count,247,param_index,113,param_id,SPEED2THR_I,param_type,9,,Len,33
2014-11-13T12:41:19.418,FE, 9,F3, 1, 1, 0,mavlink_heartbeat_t,custom_mode,0,type,10,autopilot,3,base_mode,193,system_status,4,mavlink_version,3,,Len,17
2014-11-13T12:41:19.605,FE,19,F4, 1, 1,16,mavlink_param_value_t,param_value,0.2,param_count,247,param_index,114,param_id,SPEED2THR_D,param_type,9,,Len,33
2014-11-13T12:41:19.607,FE,19,F5, 1, 1,16,mavlink_param_value_t,param_value,4000,param_count,247,param_index,115,param_id,SPEED2THR_IMAX,param_type,4,,Len,33
2014-11-13T12:41:19.609,FE,19,F6, 1, 1,16,mavlink_param_value_t,param_value,-73.93443,param_count,247,param_index,116,param_id,COMPASS_OFS_X,param_type,9,,Len,33
2014-11-13T12:41:19.651,FE,1C,F7, 1, 1,1E,mavlink_attitude_t,time_boot_ms,739990,roll,-0.09074518,pitch,0.06115225,yaw,0.9630998,rollspeed,-0.0002568599,pitchspeed,0.0005385221,yawspeed,-0.0002480226,,Len,36
2014-11-13T12:41:19.651,FE,14,F8, 1, 1,4A,mavlink_vfr_hud_t,airspeed,0,groundspeed,0,alt,0.72,climb,0,heading,55,throttle,16,,Len,28
2014-11-13T12:41:19.651,FE,19,F9, 1, 1,16,mavlink_param_value_t,param_value,-48.73246,param_count,247,param_index,117,param_id,COMPASS_OFS_Y,param_type,9,,Len,33
2014-11-13T12:41:19.658,FE,19,FA, 1, 1,16,mavlink_param_value_t,param_value,-6.555926,param_count,247,param_index,118,param_id,COMPASS_OFS_Z,param_type,9,,Len,33
2014-11-13T12:41:19.660,FE,19,FB, 1, 1,16,mavlink_param_value_t,param_value,0,param_count,247,param_index,119,param_id,COMPASS_DEC,param_type,9,,Len,33
2014-11-13T12:41:19.837,FE,19,FC, 1, 1,16,mavlink_param_value_t,param_value,1,param_count,247,param_index,120,param_id,COMPASS_LEARN,param_type,2,,Len,33
2014-11-13T12:41:19.839,FE,19,FD, 1, 1,16,mavlink_param_value_t,param_value,1,param_count,247,param_index,121,param_id,COMPASS_USE,param_type,2,,Len,33
2014-11-13T12:41:19.840,FE,19,FE, 1, 1,16,mavlink_param_value_t,param_value,1,param_count,247,param_index,122,param_id,COMPASS_AUTODEC,param_type,2,,Len,33
2014-11-13T12:41:19.842,FE,19,FF, 1, 1,16,mavlink_param_value_t,param_value,0,param_count,247,param_index,123,param_id,COMPASS_MOTCT,param_type,2,,Len,33
2014-11-13T12:41:19.853,FE,19, 0, 1, 1,16,mavlink_param_value_t,param_value,0,param_count,247,param_index,124,param_id,COMPASS_MOT_X,param_type,9,,Len,33
2014-11-13T12:41:19.869,FE,19, 1, 1, 1,16,mavlink_param_value_t,param_value,0,param_count,247,param_index,125,param_id,COMPASS_MOT_Y,param_type,9,,Len,33
2014-11-13T12:41:19.927,FE,1C, 2, 1, 1,1E,mavlink_attitude_t,time_boot_ms,740410,roll,-0.0907042,pitch,0.06117059,yaw,0.963223,rollspeed,9.194715E-06,pitchspeed,0.0002724656,yawspeed,-0.0002480226,,Len,36
2014-11-13T12:41:20.065,FE,19, 3, 1, 1,16,mavlink_param_value_t,param_value,0,param_count,247,param_index,126,param_id,COMPASS_MOT_Z,param_type,9,,Len,33
2014-11-13T12:41:20.067,FE,19, 4, 1, 1,16,mavlink_param_value_t,param_value,8,param_count,247,param_index,127,param_id,COMPASS_ORIENT,param_type,2,,Len,33
2014-11-13T12:41:20.068,FE,19, 5, 1, 1,16,mavlink_param_value_t,param_value,0,param_count,247,param_index,128,param_id,COMPASS_EXTERNAL,param_type,2,,Len,33
2014-11-13T12:41:20.092,FE, 9,1B,FF,BE, 0,mavlink_heartbeat_t,custom_mode,0,type,6,autopilot,8,base_mode,0,system_status,0,mavlink_version,3,,Len,17
2014-11-13T12:41:20.126,FE,14, 6, 1, 1,4A,mavlink_vfr_hud_t,airspeed,0,groundspeed,0,alt,0.68,climb,0,heading,55,throttle,16,,Len,28
2014-11-13T12:41:20.126,FE,19, 7, 1, 1,16,mavlink_param_value_t,param_value,0,param_count,247,param_index,129,param_id,SCHED_DEBUG,param_type,2,,Len,33
2014-11-13T12:41:20.128,FE,19, 8, 1, 1,16,mavlink_param_value_t,param_value,100628.6,param_count,247,param_index,130,param_id,GND_ABS_PRESS,param_type,9,,Len,33
2014-11-13T12:41:20.142,FE, 9,6A,33,44,A6,mavlink_radio_t,rxerrors,1,fixed,0,rssi,168,remrssi,177,txbuf,100,noise,49,remnoise,22,,Len,17
2014-11-13T12:41:20.142,FE, 9,6A,33,44,6D,mavlink_radio_status_t,rxerrors,1,fixed,0,rssi,168,remrssi,177,txbuf,100,noise,49,remnoise,22,,Len,17
2014-11-13T12:41:20.174,FE,19, 9, 1, 1,16,mavlink_param_value_t,param_value,28.72628,param_count,247,param_index,131,param_id,GND_TEMP,param_type,9,,Len,33
2014-11-13T12:41:20.190,FE,19, A, 1, 1,16,mavlink_param_value_t,param_value,0,param_count,247,param_index,132,param_id,GND_ALT_OFFSET,param_type,2,,Len,33
2014-11-13T12:41:20.222,FE,19, B, 1, 1,16,mavlink_param_value_t,param_value,13,param_count,247,param_index,133,param_id,RELAY_PIN,param_type,2,,Len,33
2014-11-13T12:41:20.223,FE,19, C, 1, 1,16,mavlink_param_value_t,param_value,-1,param_count,247,param_index,134,param_id,RELAY_PIN2,param_type,2,,Len,33
2014-11-13T12:41:20.398,FE,19, D, 1, 1,16,mavlink_param_value_t,param_value,-1,param_count,247,param_index,135,param_id,RELAY_PIN3,param_type,2,,Len,33
2014-11-13T12:41:20.400,FE,19, E, 1, 1,16,mavlink_param_value_t,param_value,-1,param_count,247,param_index,136,param_id,RELAY_PIN4,param_type,2,,Len,33
2014-11-13T12:41:20.508,FE,19, F, 1, 1,16,mavlink_param_value_t,param_value,0,param_count,247,param_index,137,param_id,RELAY_DEFAULT,param_type,2,,Len,33
2014-11-13T12:41:20.523,FE,1C,10, 1, 1,1E,mavlink_attitude_t,time_boot_ms,740831,roll,-0.09069636,pitch,0.06120171,yaw,0.963212,rollspeed,9.194715E-06,pitchspeed,0.0005385221,yawspeed,1.803203E-05,,Len,36
2014-11-13T12:41:20.523,FE,14,11, 1, 1,4A,mavlink_vfr_hud_t,airspeed,0,groundspeed,0,alt,0.63,climb,0,heading,55,throttle,16,,Len,28
2014-11-13T12:41:20.566,FE, 9,12, 1, 1, 0,mavlink_heartbeat_t,custom_mode,0,type,10,autopilot,3,base_mode,193,system_status,4,mavlink_version,3,,Len,17
2014-11-13T12:41:20.566,FE,19,13, 1, 1,16,mavlink_param_value_t,param_value,1,param_count,247,param_index,138,param_id,RCMAP_ROLL,param_type,2,,Len,33
2014-11-13T12:41:20.568,FE,19,14, 1, 1,16,mavlink_param_value_t,param_value,2,param_count,247,param_index,139,param_id,RCMAP_PITCH,param_type,2,,Len,33
2014-11-13T12:41:20.570,FE,19,15, 1, 1,16,mavlink_param_value_t,param_value,3,param_count,247,param_index,140,param_id,RCMAP_THROTTLE,param_type,2,,Len,33
2014-11-13T12:41:20.594,FE,1C,16, 1, 1,21,mavlink_global_position_int_t,time_boot_ms,740951,lat,0,lon,0,alt,-17000,relative_alt,630,vx,0,vy,0,vz,0,hdg,5518,,Len,36
2014-11-13T12:41:20.594,FE,19,17, 1, 1,16,mavlink_param_value_t,param_value,4,param_count,247,param_index,141,param_id,RCMAP_YAW,param_type,2,,Len,33
2014-11-13T12:41:20.596,FE,19,18, 1, 1,16,mavlink_param_value_t,param_value,2,param_count,247,param_index,142,param_id,SR0_RAW_SENS,param_type,4,,Len,33
2014-11-13T12:41:20.610,FE,19,19, 1, 1,16,mavlink_param_value_t,param_value,2,param_count,247,param_index,143,param_id,SR0_EXT_STAT,param_type,4,,Len,33
2014-11-13T12:41:20.766,FE,19,1A, 1, 1,16,mavlink_param_value_t,param_value,2,param_count,247,param_index,144,param_id,SR0_RC_CHAN,param_type,4,,Len,33
2014-11-13T12:41:20.768,FE,19,1B, 1, 1,16,mavlink_param_value_t,param_value,1,param_count,247,param_index,145,param_id,SR0_RAW_CTRL,param_type,4,,Len,33
2014-11-13T12:41:20.770,FE,19,1C, 1, 1,16,mavlink_param_value_t,param_value,3,param_count,247,param_index,146,param_id,SR0_POSITION,param_type,4,,Len,33
2014-11-13T12:41:20.771,FE,1C,1D, 1, 1,1E,mavlink_attitude_t,time_boot_ms,741251,roll,-0.09070415,pitch,0.06127282,yaw,0.9632209,rollspeed,0.0002752494,pitchspeed,0.0005385221,yawspeed,-0.0002480226,,Len,36
2014-11-13T12:41:20.846,FE,19,1E, 1, 1,16,mavlink_param_value_t,param_value,10,param_count,247,param_index,147,param_id,SR0_EXTRA1,param_type,4,,Len,33
2014-11-13T12:41:20.984,FE,19,1F, 1, 1,16,mavlink_param_value_t,param_value,10,param_count,247,param_index,148,param_id,SR0_EXTRA2,param_type,4,,Len,33
2014-11-13T12:41:20.986,FE,19,20, 1, 1,16,mavlink_param_value_t,param_value,2,param_count,247,param_index,149,param_id,SR0_EXTRA3,param_type,4,,Len,33
2014-11-13T12:41:20.988,FE,14,21, 1, 1,4A,mavlink_vfr_hud_t,airspeed,0,groundspeed,0,alt,0.66,climb,0,heading,55,throttle,16,,Len,28
2014-11-13T12:41:21.000,FE,1A,22, 1, 1,1B,mavlink_raw_imu_t,time_usec,741392868,xacc,59,yacc,87,zacc,-957,xgyro,0,ygyro,0,zgyro,0,xmag,93,ymag,-157,zmag,120,,Len,34
2014-11-13T12:41:21.003,FE, 9,1C,FF,BE, 0,mavlink_heartbeat_t,custom_mode,0,type,6,autopilot,8,base_mode,0,system_status,0,mavlink_version,3,,Len,17
2014-11-13T12:41:21.042,FE,19,23, 1, 1,16,mavlink_param_value_t,param_value,10,param_count,247,param_index,150,param_id,SR0_PARAMS,param_type,4,,Len,33
2014-11-13T12:41:21.043,FE,19,24, 1, 1,16,mavlink_param_value_t,param_value,1,param_count,247,param_index,151,param_id,SR1_RAW_SENS,param_type,4,,Len,33
2014-11-13T12:41:21.045,FE,19,25, 1, 1,16,mavlink_param_value_t,param_value,1,param_count,247,param_index,152,param_id,SR1_EXT_STAT,param_type,4,,Len,33
2014-11-13T12:41:21.047,FE,1F,26, 1, 1, 1,mavlink_sys_status_t,onboard_control_sensors_present,2153511,onboard_control_sensors_enabled,2097191,onboard_control_sensors_health,2153479,load,390,voltage_battery,0,current_battery,-1,drop_rate_comm,0,errors_comm,0,errors_count1,0,errors_count2,0,errors_count3,0,errors_count4,0,battery_remaining,255,,Len,39
2014-11-13T12:41:21.048,FE, 4,27, 1, 1,98,mavlink_meminfo_t,brkval,6112,freemem,2048,,Len,12
2014-11-13T12:41:21.048,FE, 2,28, 1, 1,2A,mavlink_mission_current_t,seq,0,,Len,10
2014-11-13T12:41:21.058,FE, 9,6B,33,44,A6,mavlink_radio_t,rxerrors,1,fixed,0,rssi,170,remrssi,179,txbuf,100,noise,44,remnoise,21,,Len,17
2014-11-13T12:41:21.059,FE, 9,6B,33,44,6D,mavlink_radio_status_t,rxerrors,1,fixed,0,rssi,170,remrssi,179,txbuf,100,noise,44,remnoise,21,,Len,17
2014-11-13T12:41:21.090,FE,1E,29, 1, 1,18,mavlink_gps_raw_int_t,time_usec,0,lat,0,lon,0,alt,-17000,eph,9999,epv,65535,vel,0,cog,0,fix_type,1,satellites_visible,0,,Len,38
2014-11-13T12:41:21.122,FE,15,2A, 1, 1,24,mavlink_servo_output_raw_t,time_usec,741514739,servo1_raw,1520,servo2_raw,1499,servo3_raw,1516,servo4_raw,1498,servo5_raw,1553,servo6_raw,1499,servo7_raw,967,servo8_raw,2073,port,0,,Len,29
2014-11-13T12:41:21.138,FE,16,2B, 1, 1,23,mavlink_rc_channels_raw_t,time_boot_ms,741532,chan1_raw,1520,chan2_raw,1499,chan3_raw,1516,chan4_raw,1499,chan5_raw,1553,chan6_raw,1499,chan7_raw,967,chan8_raw,2073,port,0,rssi,0,,Len,30
2014-11-13T12:41:21.138,FE,19,2C, 1, 1,16,mavlink_param_value_t,param_value,1,param_count,247,param_index,153,param_id,SR1_RC_CHAN,param_type,4,,Len,33
2014-11-13T12:41:21.165,FE,19,2D, 1, 1,16,mavlink_param_value_t,param_value,1,param_count,247,param_index,154,param_id,SR1_RAW_CTRL,param_type,4,,Len,33
2014-11-13T12:41:21.167,FE,1C,2E, 1, 1,A3,mavlink_ahrs_t,omegaIx,-0.0009486072,omegaIy,0.001349995,omegaIz,-0.0006204995,accel_weight,0,renorm_val,0,error_rp,0.0002781087,error_yaw,0.001173726,,Len,36
2014-11-13T12:41:21.167,FE, 3,2F, 1, 1,A5,mavlink_hwstatus_t,Vcc,4897,I2Cerr,0,,Len,11
2014-11-13T12:41:21.209,FE, C,30, 1, 1, 2,mavlink_system_time_t,time_unix_usec,0,time_boot_ms,741633,,Len,20
2014-11-13T12:41:21.209,FE,19,31, 1, 1,16,mavlink_param_value_t,param_value,1,param_count,247,param_index,155,param_id,SR1_POSITION,param_type,4,,Len,33
2014-11-13T12:41:21.211,FE,19,32, 1, 1,16,mavlink_param_value_t,param_value,1,param_count,247,param_index,156,param_id,SR1_EXTRA1,param_type,4,,Len,33
2014-11-13T12:41:21.305,FE,19,33, 1, 1,16,mavlink_param_value_t,param_value,1,param_count,247,param_index,157,param_id,SR1_EXTRA2,param_type,4,,Len,33
2014-11-13T12:41:21.446,FE,1C,34, 1, 1,1E,mavlink_attitude_t,time_boot_ms,741694,roll,-0.09071452,pitch,0.06126396,yaw,0.9632595,rollspeed,9.194715E-06,pitchspeed,0.0005385221,yawspeed,1.803203E-05,,Len,36
2014-11-13T12:41:21.446,FE,14,35, 1, 1,4A,mavlink_vfr_hud_t,airspeed,0,groundspeed,0,alt,0.67,climb,0,heading,55,throttle,16,,Len,28
2014-11-13T12:41:21.447,FE,19,36, 1, 1,16,mavlink_param_value_t,param_value,1,param_count,247,param_index,158,param_id,SR1_EXTRA3,param_type,4,,Len,33
2014-11-13T12:41:21.462,FE,19,37, 1, 1,16,mavlink_param_value_t,param_value,10,param_count,247,param_index,159,param_id,SR1_PARAMS,param_type,4,,Len,33
2014-11-13T12:41:21.499,FE,19,38, 1, 1,16,mavlink_param_value_t,param_value,8,param_count,247,param_index,160,param_id,NAVL1_PERIOD,param_type,9,,Len,33
2014-11-13T12:41:21.501,FE, 9,39, 1, 1, 0,mavlink_heartbeat_t,custom_mode,0,type,10,autopilot,3,base_mode,193,system_status,4,mavlink_version,3,,Len,17
2014-11-13T12:41:21.501,FE,19,3A, 1, 1,16,mavlink_param_value_t,param_value,0.75,param_count,247,param_index,161,param_id,NAVL1_DAMPING,param_type,9,,Len,33
2014-11-13T12:41:21.503,FE,19,3B, 1, 1,16,mavlink_param_value_t,param_value,0,param_count,247,param_index,162,param_id,RNGFND_TYPE,param_type,2,,Len,33
2014-11-13T12:41:21.504,FE,19,3C, 1, 1,16,mavlink_param_value_t,param_value,-1,param_count,247,param_index,163,param_id,RNGFND_PIN,param_type,2,,Len,33
2014-11-13T12:41:21.547,FE,19,3D, 1, 1,16,mavlink_param_value_t,param_value,3,param_count,247,param_index,164,param_id,RNGFND_SCALING,param_type,9,,Len,33
2014-11-13T12:41:21.549,FE,19,3E, 1, 1,16,mavlink_param_value_t,param_value,0,param_count,247,param_index,165,param_id,RNGFND_OFFSET,param_type,9,,Len,33
2014-11-13T12:41:21.659,FE,19,3F, 1, 1,16,mavlink_param_value_t,param_value,0,param_count,247,param_index,166,param_id,RNGFND_FUNCTION,param_type,2,,Len,33
2014-11-13T12:41:21.660,FE,1C,40, 1, 1,1E,mavlink_attitude_t,time_boot_ms,742114,roll,-0.09077595,pitch,0.06123346,yaw,0.963366,rollspeed,-0.0002585826,pitchspeed,-0.0005175279,yawspeed,-0.0002313881,,Len,36
2014-11-13T12:41:21.771,FE,19,41, 1, 1,16,mavlink_param_value_t,param_value,20,param_count,247,param_index,167,param_id,RNGFND_MIN_CM,param_type,4,,Len,33
2014-11-13T12:41:21.883,FE,19,42, 1, 1,16,mavlink_param_value_t,param_value,700,param_count,247,param_index,168,param_id,RNGFND_MAX_CM,param_type,4,,Len,33
2014-11-13T12:41:21.899,FE,19,43, 1, 1,16,mavlink_param_value_t,param_value,-1,param_count,247,param_index,169,param_id,RNGFND_STOP_PIN,param_type,2,,Len,33
2014-11-13T12:41:21.900,FE,14,44, 1, 1,4A,mavlink_vfr_hud_t,airspeed,0,groundspeed,0,alt,0.66,climb,0,heading,55,throttle,16,,Len,28
2014-11-13T12:41:21.915,FE,19,45, 1, 1,16,mavlink_param_value_t,param_value,0,param_count,247,param_index,170,param_id,RNGFND_SETTLE_MS,param_type,4,,Len,33
2014-11-13T12:41:21.941,FE,19,46, 1, 1,16,mavlink_param_value_t,param_value,1,param_count,247,param_index,171,param_id,RNGFND_RMETRIC,param_type,2,,Len,33
2014-11-13T12:41:21.942,FE,19,47, 1, 1,16,mavlink_param_value_t,param_value,0,param_count,247,param_index,172,param_id,RNGFND2_TYPE,param_type,2,,Len,33
2014-11-13T12:41:21.967,FE,1C,48, 1, 1,21,mavlink_global_position_int_t,time_boot_ms,742314,lat,0,lon,0,alt,-17000,relative_alt,650,vx,0,vy,0,vz,0,hdg,5520,,Len,36
2014-11-13T12:41:21.967,FE,19,49, 1, 1,16,mavlink_param_value_t,param_value,-1,param_count,247,param_index,173,param_id,RNGFND2_PIN,param_type,2,,Len,33
2014-11-13T12:41:21.969,FE,19,4A, 1, 1,16,mavlink_param_value_t,param_value,3,param_count,247,param_index,174,param_id,RNGFND2_SCALING,param_type,9,,Len,33
2014-11-13T12:41:21.983,FE,19,4B, 1, 1,16,mavlink_param_value_t,param_value,0,param_count,247,param_index,175,param_id,RNGFND2_OFFSET,param_type,9,,Len,33
2014-11-13T12:41:21.999,FE,19,4C, 1, 1,16,mavlink_param_value_t,param_value,0,param_count,247,param_index,176,param_id,RNGFND2_FUNCTION,param_type,2,,Len,33
2014-11-13T12:41:22.013,FE, 9,1D,FF,BE, 0,mavlink_heartbeat_t,custom_mode,0,type,6,autopilot,8,base_mode,0,system_status,0,mavlink_version,3,,Len,17
2014-11-13T12:41:22.042,FE,19,4D, 1, 1,16,mavlink_param_value_t,param_value,20,param_count,247,param_index,177,param_id,RNGFND2_MIN_CM,param_type,4,,Len,33
2014-11-13T12:41:22.044,FE,19,4E, 1, 1,16,mavlink_param_value_t,param_value,700,param_count,247,param_index,178,param_id,RNGFND2_MAX_CM,param_type,4,,Len,33
2014-11-13T12:41:22.046,FE,1C,4F, 1, 1,1E,mavlink_attitude_t,time_boot_ms,742534,roll,-0.09077816,pitch,0.06115672,yaw,0.9634944,rollspeed,7.472001E-06,pitchspeed,1.458137E-05,yawspeed,0.0003007212,,Len,36
2014-11-13T12:41:22.090,FE,14,50, 1, 1,4A,mavlink_vfr_hud_t,airspeed,0,groundspeed,0,alt,0.68,climb,0,heading,55,throttle,16,,Len,28
2014-11-13T12:41:22.122,FE, 9,6C,33,44,A6,mavlink_radio_t,rxerrors,1,fixed,0,rssi,177,remrssi,184,txbuf,100,noise,39,remnoise,18,,Len,17
2014-11-13T12:41:22.123,FE, 9,6C,33,44,6D,mavlink_radio_status_t,rxerrors,1,fixed,0,rssi,177,remrssi,184,txbuf,100,noise,39,remnoise,18,,Len,17
2014-11-13T12:41:22.218,FE,19,51, 1, 1,16,mavlink_param_value_t,param_value,-1,param_count,247,param_index,179,param_id,RNGFND2_STOP_PIN,param_type,2,,Len,33
2014-11-13T12:41:22.360,FE,19,52, 1, 1,16,mavlink_param_value_t,param_value,0,param_count,247,param_index,180,param_id,RNGFND2_SETTLE_M,param_type,4,,Len,33
2014-11-13T12:41:22.362,FE,19,53, 1, 1,16,mavlink_param_value_t,param_value,1,param_count,247,param_index,181,param_id,RNGFND2_RMETRIC,param_type,2,,Len,33
2014-11-13T12:41:22.364,FE,19,54, 1, 1,16,mavlink_param_value_t,param_value,88,param_count,247,param_index,182,param_id,INS_PRODUCT_ID,param_type,4,,Len,33
2014-11-13T12:41:22.373,FE,19,55, 1, 1,16,mavlink_param_value_t,param_value,1,param_count,247,param_index,183,param_id,INS_ACCSCAL_X,param_type,9,,Len,33
2014-11-13T12:41:22.400,FE,19,56, 1, 1,16,mavlink_param_value_t,param_value,1,param_count,247,param_index,184,param_id,INS_ACCSCAL_Y,param_type,9,,Len,33
2014-11-13T12:41:22.401,FE,19,57, 1, 1,16,mavlink_param_value_t,param_value,1,param_count,247,param_index,185,param_id,INS_ACCSCAL_Z,param_type,9,,Len,33
2014-11-13T12:41:22.403,FE,19,58, 1, 1,16,mavlink_param_value_t,param_value,0,param_count,247,param_index,186,param_id,INS_ACCOFFS_X,param_type,9,,Len,33
2014-11-13T12:41:22.415,FE,19,59, 1, 1,16,mavlink_param_value_t,param_value,0,param_count,247,param_index,187,param_id,INS_ACCOFFS_Y,param_type,9,,Len,33
2014-11-13T12:41:22.416,FE, 9,5A, 1, 1, 0,mavlink_heartbeat_t,custom_mode,0,type,10,autopilot,3,base_mode,193,system_status,4,mavlink_version,3,,Len,17
2014-11-13T12:41:22.575,FE,1C,5B, 1, 1,1E,mavlink_attitude_t,time_boot_ms,742954,roll,-0.09076523,pitch,0.06119056,yaw,0.963482,rollspeed,7.472001E-06,pitchspeed,-0.0005175279,yawspeed,3.466656E-05,,Len,36
2014-11-13T12:41:22.575,FE,19,5C, 1, 1,16,mavlink_param_value_t,param_value,0,param_count,247,param_index,188,param_id,INS_ACCOFFS_Z,param_type,9,,Len,33
2014-11-13T12:41:22.687,FE,19,5D, 1, 1,16,mavlink_param_value_t,param_value,-0.01798531,param_count,247,param_index,189,param_id,INS_GYROFFS_X,param_type,9,,Len,33
2014-11-13T12:41:22.800,FE,19,5E, 1, 1,16,mavlink_param_value_t,param_value,-0.04282153,param_count,247,param_index,190,param_id,INS_GYROFFS_Y,param_type,9,,Len,33
2014-11-13T12:41:22.815,FE,14,5F, 1, 1,4A,mavlink_vfr_hud_t,airspeed,0,groundspeed,0,alt,0.6,climb,0,heading,55,throttle,16,,Len,28
2014-11-13T12:41:22.815,FE,19,60, 1, 1,16,mavlink_param_value_t,param_value,-0.01101467,param_count,247,param_index,191,param_id,INS_GYROFFS_Z,param_type,9,,Len,33
2014-11-13T12:41:22.857,FE,19,61, 1, 1,16,mavlink_param_value_t,param_value,5,param_count,247,param_index,192,param_id,INS_MPU6K_FILTER,param_type,2,,Len,33
2014-11-13T12:41:22.859,FE,19,62, 1, 1,16,mavlink_param_value_t,param_value,1,param_count,247,param_index,193,param_id,AHRS_GPS_GAIN,param_type,9,,Len,33
2014-11-13T12:41:22.861,FE,19,63, 1, 1,16,mavlink_param_value_t,param_value,1,param_count,247,param_index,194,param_id,AHRS_GPS_USE,param_type,2,,Len,33
2014-11-13T12:41:22.884,FE,19,64, 1, 1,16,mavlink_param_value_t,param_value,0.2,param_count,247,param_index,195,param_id,AHRS_YAW_P,param_type,9,,Len,33
2014-11-13T12:41:22.886,FE,19,65, 1, 1,16,mavlink_param_value_t,param_value,0.2,param_count,247,param_index,196,param_id,AHRS_RP_P,param_type,9,,Len,33
