2014-11-10T14:35:34.444,FE, 9,7A,FF,BE, 0,mavlink_heartbeat_t,custom_mode,0,type,6,autopilot,8,base_mode,0,system_status,0,mavlink_version,3,,Len,17
2014-11-10T14:35:34.460,FE,1C,7D, 1, 1,1E,mavlink_attitude_t,time_boot_ms,2092250,roll,-0.02824674,pitch,-0.005071007,yaw,1.546812,rollspeed,0.1995955,pitchspeed,0.01034617,yawspeed,-0.008628018,,Len,36
2014-11-10T14:35:34.460,FE,1C,7E, 1, 1,21,mavlink_global_position_int_t,time_boot_ms,2092269,lat,406259120,lon,-754604092,alt,77410,relative_alt,1290,vx,6,vy,-8,vz,9,hdg,8861,,Len,36
2014-11-10T14:35:34.460,FE,1A,7F, 1, 1,1B,mavlink_raw_imu_t,time_usec,2092293800,xacc,-6,yacc,25,zacc,-965,xgyro,225,ygyro,17,zgyro,-10,xmag,-23,ymag,-145,zmag,315,,Len,34
2014-11-10T14:35:34.460,FE,14,80, 1, 1,4A,mavlink_vfr_hud_t,airspeed,0.09999999,groundspeed,0.09999999,alt,78.73,climb,0,heading,88,throttle,98,,Len,28
2014-11-10T14:35:34.460,FE,1F,81, 1, 1, 1,mavlink_sys_status_t,onboard_control_sensors_present,2153511,onboard_control_sensors_enabled,2097191,onboard_control_sensors_health,2153511,load,377,voltage_battery,0,current_battery,-1,drop_rate_comm,0,errors_comm,0,errors_count1,0,errors_count2,0,errors_count3,0,errors_count4,0,battery_remaining,255,,Len,39
2014-11-10T14:35:34.460,FE, 4,82, 1, 1,98,mavlink_meminfo_t,brkval,5857,freemem,2279,,Len,12
2014-11-10T14:35:34.460,FE, 2,83, 1, 1,2A,mavlink_mission_current_t,seq,6,,Len,10
2014-11-10T14:35:34.460,FE,1E,84, 1, 1,18,mavlink_gps_raw_int_t,time_usec,2092269000,lat,406259123,lon,-754604095,alt,77410,eph,180,epv,65535,vel,9,cog,34525,fix_type,3,satellites_visible,10,,Len,38
2014-11-10T14:35:34.460,FE,15,85, 1, 1,24,mavlink_servo_output_raw_t,time_usec,2092371121,servo1_raw,1475,servo2_raw,1499,servo3_raw,1229,servo4_raw,1499,servo5_raw,1553,servo6_raw,1499,servo7_raw,967,servo8_raw,2073,port,0,,Len,29
2014-11-10T14:35:34.460,FE,16,86, 1, 1,23,mavlink_rc_channels_raw_t,time_boot_ms,2092371,chan1_raw,1475,chan2_raw,1499,chan3_raw,1229,chan4_raw,1499,chan5_raw,1553,chan6_raw,1499,chan7_raw,967,chan8_raw,2073,port,0,rssi,0,,Len,30
2014-11-10T14:35:34.460,FE,1C,87, 1, 1,1E,mavlink_attitude_t,time_boot_ms,2092371,roll,-0.003244554,pitch,-0.002077798,yaw,1.544984,rollspeed,0.1618157,pitchspeed,0.02923607,yawspeed,-0.01980232,,Len,36
2014-11-10T14:35:34.460,FE,1C,88, 1, 1,A3,mavlink_ahrs_t,omegaIx,-0.001103039,omegaIy,0.001297637,omegaIz,-0.0009470045,accel_weight,0,renorm_val,0,error_rp,0.07847117,error_yaw,0.005271216,,Len,36
2014-11-10T14:35:34.460,FE, 3,89, 1, 1,A5,mavlink_hwstatus_t,Vcc,4940,I2Cerr,0,,Len,11
2014-11-10T14:35:34.460,FE, C,8A, 1, 1, 2,mavlink_system_time_t,time_unix_usec,1415648134362000,time_boot_ms,2092411,,Len,20
2014-11-10T14:35:34.460,FE,14,8B, 1, 1,4A,mavlink_vfr_hud_t,airspeed,0.09999999,groundspeed,0.09999999,alt,78.64,climb,0,heading,88,throttle,98,,Len,28
2014-11-10T14:35:34.460,FE,1C,8C, 1, 1,1E,mavlink_attitude_t,time_boot_ms,2092493,roll,-0.0002913245,pitch,0.0001659448,yaw,1.541526,rollspeed,-0.09466122,pitchspeed,0.01540121,yawspeed,-0.03310507,,Len,36
2014-11-10T14:35:34.460,FE,14,8D, 1, 1,4A,mavlink_vfr_hud_t,airspeed,0.11,groundspeed,0.11,alt,78.55,climb,0,heading,88,throttle,98,,Len,28
2014-11-10T14:35:34.460,FE,1C,8E, 1, 1,21,mavlink_global_position_int_t,time_boot_ms,2092470,lat,406259127,lon,-754604099,alt,77430,relative_alt,1130,vx,6,vy,-9,vz,22,hdg,8808,,Len,36
2014-11-10T14:35:34.460,FE,1C,8F, 1, 1,1E,mavlink_attitude_t,time_boot_ms,2092611,roll,-0.02368644,pitch,-0.0004662815,yaw,1.537442,rollspeed,-0.2231657,pitchspeed,-0.02450702,yawspeed,-0.03390323,,Len,36
2014-11-10T14:35:34.460,FE,14,90, 1, 1,4A,mavlink_vfr_hud_t,airspeed,0.14,groundspeed,0.14,alt,78.6,climb,0,heading,87,throttle,98,,Len,28
2014-11-10T14:35:34.460,FE, 9,91, 1, 1, 0,mavlink_heartbeat_t,custom_mode,0,type,10,autopilot,3,base_mode,193,system_status,4,mavlink_version,3,,Len,17
2014-11-10T14:35:34.475,FE,1C,92, 1, 1,1E,mavlink_attitude_t,time_boot_ms,2092730,roll,-0.04379377,pitch,-0.005327578,yaw,1.534497,rollspeed,-0.09279884,pitchspeed,-0.04871801,yawspeed,-0.02352709,,Len,36
2014-11-10T14:35:34.475,FE,14,93, 1, 1,4A,mavlink_vfr_hud_t,airspeed,0.14,groundspeed,0.14,alt,78.6,climb,0,heading,87,throttle,98,,Len,28
2014-11-10T14:35:34.475,FE,1A,94, 1, 1,1B,mavlink_raw_imu_t,time_usec,2092811606,xacc,-9,yacc,75,zacc,-938,xgyro,79,ygyro,-37,zgyro,-14,xmag,-21,ymag,-151,zmag,314,,Len,34
2014-11-10T14:35:34.475,FE,1C,95, 1, 1,1E,mavlink_attitude_t,time_boot_ms,2092851,roll,-0.03619343,pitch,-0.009435001,yaw,1.532774,rollspeed,0.158357,pitchspeed,-0.02104831,yawspeed,-0.01448122,,Len,36
2014-11-10T14:35:34.475,FE,1F,96, 1, 1, 1,mavlink_sys_status_t,onboard_control_sensors_present,2153511,onboard_control_sensors_enabled,2097191,onboard_control_sensors_health,2153511,load,375,voltage_battery,0,current_battery,-1,drop_rate_comm,0,errors_comm,0,errors_count1,0,errors_count2,0,errors_count3,0,errors_count4,0,battery_remaining,255,,Len,39
2014-11-10T14:35:34.475,FE, 4,97, 1, 1,98,mavlink_meminfo_t,brkval,5857,freemem,2279,,Len,12
2014-11-10T14:35:34.475,FE, 2,98, 1, 1,2A,mavlink_mission_current_t,seq,6,,Len,10
2014-11-10T14:35:34.475,FE,1E,99, 1, 1,18,mavlink_gps_raw_int_t,time_usec,2092870000,lat,406259132,lon,-754604103,alt,77430,eph,183,epv,65535,vel,12,cog,34525,fix_type,3,satellites_visible,9,,Len,38
2014-11-10T14:35:34.475,FE,15,9A, 1, 1,24,mavlink_servo_output_raw_t,time_usec,2092894840,servo1_raw,1475,servo2_raw,1499,servo3_raw,1230,servo4_raw,1499,servo5_raw,1553,servo6_raw,1499,servo7_raw,967,servo8_raw,2073,port,0,,Len,29
2014-11-10T14:35:34.475,FE,16,9B, 1, 1,23,mavlink_rc_channels_raw_t,time_boot_ms,2092894,chan1_raw,1475,chan2_raw,1498,chan3_raw,1230,chan4_raw,1498,chan5_raw,1554,chan6_raw,1498,chan7_raw,967,chan8_raw,2073,port,0,rssi,0,,Len,30
2014-11-10T14:35:34.475,FE,14,9C, 1, 1,4A,mavlink_vfr_hud_t,airspeed,0.12,groundspeed,0.12,alt,78.64,climb,0,heading,87,throttle,98,,Len,28
2014-11-10T14:35:34.475,FE,1C,9D, 1, 1,A3,mavlink_ahrs_t,omegaIx,-0.001103039,omegaIy,0.001297637,omegaIz,-0.0009470045,accel_weight,0,renorm_val,0,error_rp,0.06236164,error_yaw,0.00445959,,Len,36
2014-11-10T14:35:34.475,FE, 3,9E, 1, 1,A5,mavlink_hwstatus_t,Vcc,4918,I2Cerr,0,,Len,11
2014-11-10T14:35:34.475,FE, C,9F, 1, 1, 2,mavlink_system_time_t,time_unix_usec,1415648134881000,time_boot_ms,2092931,,Len,20
2014-11-10T14:35:34.475,FE,1C,A0, 1, 1,21,mavlink_global_position_int_t,time_boot_ms,2092870,lat,406259131,lon,-754604102,alt,77430,relative_alt,1200,vx,12,vy,3,vz,8,hdg,8773,,Len,36
2014-11-10T14:35:34.475,FE,1C,A1, 1, 1,1E,mavlink_attitude_t,time_boot_ms,2092971,roll,-0.0107108,pitch,-0.009992481,yaw,1.530959,rollspeed,0.2097055,pitchspeed,0.02205259,yawspeed,-0.01687572,,Len,36
2014-11-10T14:35:34.475,FE,14,A2, 1, 1,4A,mavlink_vfr_hud_t,airspeed,0.12,groundspeed,0.12,alt,78.52,climb,0,heading,87,throttle,98,,Len,28
2014-11-10T14:35:34.475,FE,1C,A3, 1, 1,1E,mavlink_attitude_t,time_boot_ms,2093094,roll,0.004015903,pitch,-0.007292283,yaw,1.528087,rollspeed,0.05087079,pitchspeed,0.04386909,yawspeed,-0.02911424,,Len,36
2014-11-10T14:35:34.475,FE,14,A4, 1, 1,4A,mavlink_vfr_hud_t,airspeed,0.03,groundspeed,0.03,alt,78.63,climb,0,heading,87,throttle,98,,Len,28
2014-11-10T14:35:34.475,FE,1C,A5, 1, 1,1E,mavlink_attitude_t,time_boot_ms,2093212,roll,-0.003754882,pitch,-0.002370373,yaw,1.524078,rollspeed,-0.1481383,pitchspeed,0.0225847,yawspeed,-0.03576562,,Len,36
2014-11-10T14:35:34.475,FE, 9,C9,33,44,A6,mavlink_radio_t,rxerrors,324,fixed,599,rssi,108,remrssi,116,txbuf,100,noise,45,remnoise,19,,Len,17
2014-11-10T14:35:34.475,FE, 9,C9,33,44,6D,mavlink_radio_status_t,rxerrors,324,fixed,599,rssi,108,remrssi,116,txbuf,100,noise,45,remnoise,19,,Len,17
2014-11-10T14:35:34.631,FE,14,A6, 1, 1,4A,mavlink_vfr_hud_t,airspeed,0.12,groundspeed,0.12,alt,78.62,climb,0,heading,87,throttle,98,,Len,28
2014-11-10T14:35:34.631,FE,1C,A7, 1, 1,21,mavlink_global_position_int_t,time_boot_ms,2093271,lat,406259135,lon,-754604100,alt,77420,relative_alt,1180,vx,1,vy,-12,vz,9,hdg,8717,,Len,36
2014-11-10T14:35:34.647,FE,1A,A8, 1, 1,1B,mavlink_raw_imu_t,time_usec,2093331896,xacc,6,yacc,24,zacc,-974,xgyro,-191,ygyro,-16,zgyro,-27,xmag,-21,ymag,-141,zmag,317,,Len,34
2014-11-10T14:35:34.662,FE,1C,A9, 1, 1,1E,mavlink_attitude_t,time_boot_ms,2093332,roll,-0.02593587,pitch,-0.001528572,yaw,1.520352,rollspeed,-0.1923034,pitchspeed,-0.01546115,yawspeed,-0.02831608,,Len,36
2014-11-10T14:35:34.678,FE,1F,AA, 1, 1, 1,mavlink_sys_status_t,onboard_control_sensors_present,2153511,onboard_control_sensors_enabled,2097191,onboard_control_sensors_health,2153511,load,370,voltage_battery,0,current_battery,-1,drop_rate_comm,0,errors_comm,0,errors_count1,0,errors_count2,0,errors_count3,0,errors_count4,0,battery_remaining,255,,Len,39
2014-11-10T14:35:34.678,FE, 4,AB, 1, 1,98,mavlink_meminfo_t,brkval,5857,freemem,2279,,Len,12
2014-11-10T14:35:34.678,FE, 2,AC, 1, 1,2A,mavlink_mission_current_t,seq,6,,Len,10
2014-11-10T14:35:34.709,FE,1E,AD, 1, 1,18,mavlink_gps_raw_int_t,time_usec,2093271000,lat,406259134,lon,-754604099,alt,77420,eph,183,epv,65535,vel,12,cog,34525,fix_type,3,satellites_visible,9,,Len,38
2014-11-10T14:35:34.709,FE,14,AE, 1, 1,4A,mavlink_vfr_hud_t,airspeed,0.12,groundspeed,0.12,alt,78.64,climb,0,heading,87,throttle,98,,Len,28
2014-11-10T14:35:34.709,FE,15,AF, 1, 1,24,mavlink_servo_output_raw_t,time_usec,2093412722,servo1_raw,1475,servo2_raw,1499,servo3_raw,1229,servo4_raw,1499,servo5_raw,1553,servo6_raw,1499,servo7_raw,967,servo8_raw,2073,port,0,,Len,29
2014-11-10T14:35:34.740,FE,16,B0, 1, 1,23,mavlink_rc_channels_raw_t,time_boot_ms,2093412,chan1_raw,1475,chan2_raw,1499,chan3_raw,1229,chan4_raw,1499,chan5_raw,1554,chan6_raw,1499,chan7_raw,966,chan8_raw,2073,port,0,rssi,0,,Len,30
2014-11-10T14:35:34.850,FE,1C,B1, 1, 1,1E,mavlink_attitude_t,time_boot_ms,2093452,roll,-0.04141913,pitch,-0.003926383,yaw,1.518243,rollspeed,-0.0664594,pitchspeed,-0.03142445,yawspeed,-0.01474728,,Len,36
2014-11-10T14:35:34.865,FE,1C,B2, 1, 1,A3,mavlink_ahrs_t,omegaIx,-0.001103039,omegaIy,0.001297637,omegaIz,-0.0009470045,accel_weight,0,renorm_val,0,error_rp,0.04543447,error_yaw,0.006842479,,Len,36
2014-11-10T14:35:34.865,FE, 3,B3, 1, 1,A5,mavlink_hwstatus_t,Vcc,4940,I2Cerr,0,,Len,11
2014-11-10T14:35:34.959,FE, C,B4, 1, 1, 2,mavlink_system_time_t,time_unix_usec,1415648135402000,time_boot_ms,2093453,,Len,20
2014-11-10T14:35:34.959,FE,14,B5, 1, 1,4A,mavlink_vfr_hud_t,airspeed,0.02,groundspeed,0.02,alt,78.54,climb,0,heading,86,throttle,98,,Len,28
2014-11-10T14:35:35.068,FE, 9,7B,FF,BE, 0,mavlink_heartbeat_t,custom_mode,0,type,6,autopilot,8,base_mode,0,system_status,0,mavlink_version,3,,Len,17
2014-11-10T14:35:35.099,FE,1C,B6, 1, 1,1E,mavlink_attitude_t,time_boot_ms,2093572,roll,-0.03576485,pitch,-0.006849621,yaw,1.516968,rollspeed,0.1139258,pitchspeed,-0.00827767,yawspeed,-0.01421517,,Len,36
2014-11-10T14:35:35.099,FE,1C,B7, 1, 1,21,mavlink_global_position_int_t,time_boot_ms,2093471,lat,406259135,lon,-754604096,alt,77430,relative_alt,1090,vx,-2,vy,-1,vz,6,hdg,8685,,Len,36
2014-11-10T14:35:35.130,FE,14,B8, 1, 1,4A,mavlink_vfr_hud_t,airspeed,0.02,groundspeed,0.02,alt,78.53,climb,0,heading,86,throttle,98,,Len,28
2014-11-10T14:35:35.146,FE,1C,B9, 1, 1,1E,mavlink_attitude_t,time_boot_ms,2093695,roll,-0.01543813,pitch,-0.007309021,yaw,1.514602,rollspeed,0.1676689,pitchspeed,0.01220855,yawspeed,-0.02352709,,Len,36
2014-11-10T14:35:35.146,FE, 9,BA, 1, 1, 0,mavlink_heartbeat_t,custom_mode,0,type,10,autopilot,3,base_mode,193,system_status,4,mavlink_version,3,,Len,17
2014-11-10T14:35:35.146,FE, 2,7C,FF,BE,15,mavlink_param_request_list_t,target_system,1,target_component,1,,Len,10
2014-11-10T14:35:35.146,FE,14,BB, 1, 1,4A,mavlink_vfr_hud_t,airspeed,0.03,groundspeed,0.03,alt,78.6,climb,0,heading,86,throttle,98,,Len,28
2014-11-10T14:35:35.146,FE,1C,BC, 1, 1,1E,mavlink_attitude_t,time_boot_ms,2093812,roll,-0.001865558,pitch,-0.006251007,yaw,1.511495,rollspeed,0.070765,pitchspeed,-0.000479892,yawspeed,-0.02526189,,Len,36
2014-11-10T14:35:35.162,FE,1A,BD, 1, 1,1B,mavlink_raw_imu_t,time_usec,2093853899,xacc,1,yacc,-12,zacc,-971,xgyro,27,ygyro,-10,zgyro,-21,xmag,-19,ymag,-139,zmag,318,,Len,34
2014-11-10T14:35:35.162,FE,14,BE, 1, 1,4A,mavlink_vfr_hud_t,airspeed,0.12,groundspeed,0.12,alt,78.54,climb,0,heading,86,throttle,98,,Len,28
2014-11-10T14:35:35.177,FE, 9,CA,33,44,A6,mavlink_radio_t,rxerrors,324,fixed,599,rssi,109,remrssi,116,txbuf,100,noise,50,remnoise,21,,Len,17
2014-11-10T14:35:35.177,FE, 9,CA,33,44,6D,mavlink_radio_status_t,rxerrors,324,fixed,599,rssi,109,remrssi,116,txbuf,100,noise,50,remnoise,21,,Len,17
2014-11-10T14:35:35.255,FE,1F,BF, 1, 1, 1,mavlink_sys_status_t,onboard_control_sensors_present,2153511,onboard_control_sensors_enabled,2097191,onboard_control_sensors_health,2153511,load,378,voltage_battery,0,current_battery,-1,drop_rate_comm,0,errors_comm,0,errors_count1,0,errors_count2,0,errors_count3,0,errors_count4,0,battery_remaining,255,,Len,39
2014-11-10T14:35:35.255,FE, 4,C0, 1, 1,98,mavlink_meminfo_t,brkval,5857,freemem,2279,,Len,12
2014-11-10T14:35:35.255,FE, 2,C1, 1, 1,2A,mavlink_mission_current_t,seq,6,,Len,10
2014-11-10T14:35:35.255,FE,1E,C2, 1, 1,18,mavlink_gps_raw_int_t,time_usec,2093872000,lat,406259140,lon,-754604093,alt,77530,eph,180,epv,65535,vel,12,cog,34525,fix_type,3,satellites_visible,10,,Len,38
2014-11-10T14:35:35.286,FE,15,C3, 1, 1,24,mavlink_servo_output_raw_t,time_usec,2093932786,servo1_raw,1475,servo2_raw,1499,servo3_raw,1229,servo4_raw,1499,servo5_raw,1553,servo6_raw,1499,servo7_raw,967,servo8_raw,2073,port,0,,Len,29
2014-11-10T14:35:35.286,FE,16,C4, 1, 1,23,mavlink_rc_channels_raw_t,time_boot_ms,2093932,chan1_raw,1475,chan2_raw,1499,chan3_raw,1229,chan4_raw,1499,chan5_raw,1553,chan6_raw,1499,chan7_raw,967,chan8_raw,2073,port,0,rssi,0,,Len,30
2014-11-10T14:35:35.286,FE,1C,C5, 1, 1,1E,mavlink_attitude_t,time_boot_ms,2093933,roll,-0.002880642,pitch,-0.007494751,yaw,1.509266,rollspeed,-0.0500239,pitchspeed,-0.0228285,yawspeed,-0.01302337,,Len,36
2014-11-10T14:35:35.333,FE,1C,C6, 1, 1,21,mavlink_global_position_int_t,time_boot_ms,2093872,lat,406259142,lon,-754604093,alt,77530,relative_alt,1180,vx,3,vy,-12,vz,13,hdg,8645,,Len,36
2014-11-10T14:35:35.333,FE,1C,C7, 1, 1,A3,mavlink_ahrs_t,omegaIx,-0.0008968838,omegaIy,0.001113769,omegaIz,-0.0008194229,accel_weight,0,renorm_val,0,error_rp,0.04074368,error_yaw,0.002111827,,Len,36
2014-11-10T14:35:35.333,FE, 3,C8, 1, 1,A5,mavlink_hwstatus_t,Vcc,4876,I2Cerr,0,,Len,11
2014-11-10T14:35:35.427,FE, C,C9, 1, 1, 2,mavlink_system_time_t,time_unix_usec,1415648135942000,time_boot_ms,2093974,,Len,20
2014-11-10T14:35:35.427,FE,14,CA, 1, 1,4A,mavlink_vfr_hud_t,airspeed,0.12,groundspeed,0.12,alt,78.62,climb,0,heading,86,throttle,98,,Len,28
2014-11-10T14:35:35.567,FE,1C,CB, 1, 1,1E,mavlink_attitude_t,time_boot_ms,2094053,roll,-0.01358954,pitch,-0.008712647,yaw,1.508574,rollspeed,-0.1011064,pitchspeed,-0.01032392,yawspeed,-0.003711449,,Len,36
2014-11-10T14:35:35.567,FE,33,CC, 1, 1,FD,mavlink_statustext_t,severity,1,text,ArduRover v2.46 (3d8f1e03),,Len,59
2014-11-10T14:35:35.583,FE,14,CD, 1, 1,4A,mavlink_vfr_hud_t,airspeed,0.15,groundspeed,0.15,alt,78.52,climb,0,heading,86,throttle,98,,Len,28
2014-11-10T14:35:35.598,FE,19,CE, 1, 1,16,mavlink_param_value_t,param_value,16,param_count,244,param_index,0,param_id,FORMAT_VERSION,param_type,4,,Len,33
2014-11-10T14:35:35.598,FE,19,CF, 1, 1,16,mavlink_param_value_t,param_value,20,param_count,244,param_index,1,param_id,SYSID_SW_TYPE,param_type,2,,Len,33
2014-11-10T14:35:35.614,FE,19,D0, 1, 1,16,mavlink_param_value_t,param_value,16254,param_count,244,param_index,2,param_id,LOG_BITMASK,param_type,6,,Len,33
2014-11-10T14:35:35.630,FE,1C,D1, 1, 1,1E,mavlink_attitude_t,time_boot_ms,2094174,roll,-0.02651623,pitch,-0.006914908,yaw,1.50763,rollspeed,-0.09711562,pitchspeed,0.03144669,yawspeed,-0.01515181,,Len,36
2014-11-10T14:35:35.630,FE,19,D2, 1, 1,16,mavlink_param_value_t,param_value,29,param_count,244,param_index,3,param_id,SYS_NUM_RESETS,param_type,4,,Len,33
2014-11-10T14:35:35.661,FE,19,D3, 1, 1,16,mavlink_param_value_t,param_value,0,param_count,244,param_index,4,param_id,RST_SWITCH_CH,param_type,2,,Len,33
2014-11-10T14:35:35.676,FE,19,D4, 1, 1,16,mavlink_param_value_t,param_value,0,param_count,244,param_index,5,param_id,INITIAL_MODE,param_type,2,,Len,33
2014-11-10T14:35:35.692,FE,1C,D5, 1, 1,21,mavlink_global_position_int_t,time_boot_ms,2094273,lat,406259143,lon,-754604094,alt,77620,relative_alt,1140,vx,3,vy,-6,vz,11,hdg,8612,,Len,36
2014-11-10T14:35:35.708,FE,1A,D6, 1, 1,1B,mavlink_raw_imu_t,time_usec,2094374348,xacc,4,yacc,35,zacc,-974,xgyro,-17,ygyro,24,zgyro,-45,xmag,-18,ymag,-148,zmag,314,,Len,34
2014-11-10T14:35:35.754,FE,2A,D7, 1, 1,96,mavlink_sensor_offsets_t,mag_declination,-0.2068042,raw_press,101193,raw_temp,3295,gyro_cal_x,-0.01924908,gyro_cal_y,-0.04257145,gyro_cal_z,-0.01732814,accel_cal_x,0,accel_cal_y,0,accel_cal_z,0,mag_ofs_x,-59,mag_ofs_y,-5,mag_ofs_z,63,,Len,50
2014-11-10T14:35:35.754,FE,19,D8, 1, 1,16,mavlink_param_value_t,param_value,-1,param_count,244,param_index,6,param_id,RSSI_PIN,param_type,2,,Len,33
2014-11-10T14:35:35.754,FE,19,D9, 1, 1,16,mavlink_param_value_t,param_value,1,param_count,244,param_index,7,param_id,SYSID_THISMAV,param_type,4,,Len,33
2014-11-10T14:35:35.801,FE,19,DA, 1, 1,16,mavlink_param_value_t,param_value,255,param_count,244,param_index,8,param_id,SYSID_MYGCS,param_type,4,,Len,33
2014-11-10T14:35:35.801,FE,1F,DB, 1, 1, 1,mavlink_sys_status_t,onboard_control_sensors_present,2153511,onboard_control_sensors_enabled,2097191,onboard_control_sensors_health,2153511,load,379,voltage_battery,0,current_battery,-1,drop_rate_comm,0,errors_comm,0,errors_count1,0,errors_count2,0,errors_count3,0,errors_count4,0,battery_remaining,255,,Len,39
2014-11-10T14:35:35.801,FE, 4,DC, 1, 1,98,mavlink_meminfo_t,brkval,5857,freemem,2279,,Len,12
2014-11-10T14:35:35.801,FE, 2,DD, 1, 1,2A,mavlink_mission_current_t,seq,6,,Len,10
2014-11-10T14:35:35.801,FE,1E,DE, 1, 1,18,mavlink_gps_raw_int_t,time_usec,2094273000,lat,406259146,lon,-754604096,alt,77620,eph,180,epv,65535,vel,7,cog,34525,fix_type,3,satellites_visible,10,,Len,38
2014-11-10T14:35:35.832,FE,15,DF, 1, 1,24,mavlink_servo_output_raw_t,time_usec,2094454835,servo1_raw,1475,servo2_raw,1499,servo3_raw,1229,servo4_raw,1499,servo5_raw,1553,servo6_raw,1499,servo7_raw,967,servo8_raw,2073,port,0,,Len,29
2014-11-10T14:35:35.832,FE,16,E0, 1, 1,23,mavlink_rc_channels_raw_t,time_boot_ms,2094454,chan1_raw,1475,chan2_raw,1499,chan3_raw,1229,chan4_raw,1499,chan5_raw,1554,chan6_raw,1498,chan7_raw,967,chan8_raw,2073,port,0,rssi,0,,Len,30
2014-11-10T14:35:35.848,FE,1C,E1, 1, 1,A3,mavlink_ahrs_t,omegaIx,-0.0008968838,omegaIy,0.001113769,omegaIz,-0.0008194229,accel_weight,0,renorm_val,0,error_rp,0.03184826,error_yaw,0.004467255,,Len,36
2014-11-10T14:35:35.848,FE, 3,E2, 1, 1,A5,mavlink_hwstatus_t,Vcc,4897,I2Cerr,0,,Len,11
2014-11-10T14:35:35.864,FE, C,E3, 1, 1, 2,mavlink_system_time_t,time_unix_usec,1415648136464000,time_boot_ms,2094497,,Len,20
2014-11-10T14:35:35.864,FE,19,E4, 1, 1,16,mavlink_param_value_t,param_value,115,param_count,244,param_index,9,param_id,SERIAL0_BAUD,param_type,4,,Len,33
2014-11-10T14:35:35.879,FE,19,E5, 1, 1,16,mavlink_param_value_t,param_value,57,param_count,244,param_index,10,param_id,SERIAL1_BAUD,param_type,4,,Len,33
2014-11-10T14:35:35.895,FE,19,E6, 1, 1,16,mavlink_param_value_t,param_value,0,param_count,244,param_index,11,param_id,TELEM_DELAY,param_type,2,,Len,33
2014-11-10T14:35:35.926,FE,14,E7, 1, 1,4A,mavlink_vfr_hud_t,airspeed,0.09,groundspeed,0.09,alt,78.54,climb,0,heading,85,throttle,98,,Len,28
2014-11-10T14:35:35.957,FE,1C,E8, 1, 1,1E,mavlink_attitude_t,time_boot_ms,2094595,roll,-0.02228264,pitch,-0.005427025,yaw,1.493527,rollspeed,0.1441962,pitchspeed,-0.05927802,yawspeed,-0.009564656,,Len,36
2014-11-10T14:35:35.957,FE,19,E9, 1, 1,16,mavlink_param_value_t,param_value,0,param_count,244,param_index,12,param_id,SKIP_GYRO_CAL,param_type,2,,Len,33
2014-11-10T14:35:35.988,FE,19,EA, 1, 1,16,mavlink_param_value_t,param_value,1,param_count,244,param_index,13,param_id,MAG_ENABLE,param_type,2,,Len,33
2014-11-10T14:35:35.988,FE,19,EB, 1, 1,16,mavlink_param_value_t,param_value,-1,param_count,244,param_index,14,param_id,AUTO_TRIGGER_PIN,param_type,2,,Len,33
2014-11-10T14:35:35.988,FE, 9,EC, 1, 1, 0,mavlink_heartbeat_t,custom_mode,0,type,10,autopilot,3,base_mode,193,system_status,4,mavlink_version,3,,Len,17
2014-11-10T14:35:35.988,FE,19,ED, 1, 1,16,mavlink_param_value_t,param_value,0,param_count,244,param_index,15,param_id,AUTO_KICKSTART,param_type,9,,Len,33
2014-11-10T14:35:35.988,FE,19,EE, 1, 1,16,mavlink_param_value_t,param_value,5,param_count,244,param_index,16,param_id,CRUISE_SPEED,param_type,9,,Len,33
2014-11-10T14:35:36.020,FE,19,EF, 1, 1,16,mavlink_param_value_t,param_value,50,param_count,244,param_index,17,param_id,SPEED_TURN_GAIN,param_type,2,,Len,33
2014-11-10T14:35:36.066,FE, 9,7D,FF,BE, 0,mavlink_heartbeat_t,custom_mode,0,type,6,autopilot,8,base_mode,0,system_status,0,mavlink_version,3,,Len,17
2014-11-10T14:35:36.098,FE, 9,CB,33,44,A6,mavlink_radio_t,rxerrors,324,fixed,599,rssi,105,remrssi,116,txbuf,100,noise,42,remnoise,20,,Len,17
2014-11-10T14:35:36.113,FE, 9,CB,33,44,6D,mavlink_radio_status_t,rxerrors,324,fixed,599,rssi,105,remrssi,116,txbuf,100,noise,42,remnoise,20,,Len,17
2014-11-10T14:35:36.160,FE,19,F0, 1, 1,16,mavlink_param_value_t,param_value,2,param_count,244,param_index,18,param_id,SPEED_TURN_DIST,param_type,9,,Len,33
2014-11-10T14:35:36.176,FE,19,F1, 1, 1,16,mavlink_param_value_t,param_value,0,param_count,244,param_index,19,param_id,BRAKING_PERCENT,param_type,2,,Len,33
2014-11-10T14:35:36.176,FE,19,F2, 1, 1,16,mavlink_param_value_t,param_value,3,param_count,244,param_index,20,param_id,BRAKING_SPEEDERR,param_type,9,,Len,33
2014-11-10T14:35:36.207,FE,14,F3, 1, 1,4A,mavlink_vfr_hud_t,airspeed,0.09999999,groundspeed,0.09999999,alt,78.6,climb,0,heading,85,throttle,98,,Len,28
2014-11-10T14:35:36.207,FE,19,F4, 1, 1,16,mavlink_param_value_t,param_value,30,param_count,244,param_index,21,param_id,PIVOT_TURN_ANGLE,param_type,4,,Len,33
2014-11-10T14:35:36.207,FE,19,F5, 1, 1,16,mavlink_param_value_t,param_value,1,param_count,244,param_index,22,param_id,CH7_OPTION,param_type,2,,Len,33
2014-11-10T14:35:36.254,FE,19,F6, 1, 1,16,mavlink_param_value_t,param_value,1091,param_count,244,param_index,23,param_id,RC1_MIN,param_type,4,,Len,33
2014-11-10T14:35:36.254,FE,1C,F7, 1, 1,1E,mavlink_attitude_t,time_boot_ms,2095015,roll,-0.02380162,pitch,-0.003907933,yaw,1.492142,rollspeed,-0.2362623,pitchspeed,0.05007054,yawspeed,-0.03590409,,Len,36
2014-11-10T14:35:36.363,FE,19,F8, 1, 1,16,mavlink_param_value_t,param_value,1503,param_count,244,param_index,24,param_id,RC1_TRIM,param_type,4,,Len,33
2014-11-10T14:35:36.363,FE,19,F9, 1, 1,16,mavlink_param_value_t,param_value,1919,param_count,244,param_index,25,param_id,RC1_MAX,param_type,4,,Len,33
2014-11-10T14:35:36.488,FE,19,FA, 1, 1,16,mavlink_param_value_t,param_value,-1,param_count,244,param_index,26,param_id,RC1_REV,param_type,2,,Len,33
2014-11-10T14:35:36.488,FE,19,FB, 1, 1,16,mavlink_param_value_t,param_value,30,param_count,244,param_index,27,param_id,RC1_DZ,param_type,4,,Len,33
2014-11-10T14:35:36.488,FE,19,FC, 1, 1,16,mavlink_param_value_t,param_value,1498,param_count,244,param_index,28,param_id,RC2_MIN,param_type,4,,Len,33
2014-11-10T14:35:36.488,FE,19,FD, 1, 1,16,mavlink_param_value_t,param_value,1499,param_count,244,param_index,29,param_id,RC2_TRIM,param_type,4,,Len,33
2014-11-10T14:35:36.597,FE,19,FE, 1, 1,16,mavlink_param_value_t,param_value,1499,param_count,244,param_index,30,param_id,RC2_MAX,param_type,4,,Len,33
2014-11-10T14:35:36.597,FE,19,FF, 1, 1,16,mavlink_param_value_t,param_value,1,param_count,244,param_index,31,param_id,RC2_REV,param_type,2,,Len,33
2014-11-10T14:35:36.722,FE,19, 0, 1, 1,16,mavlink_param_value_t,param_value,0,param_count,244,param_index,32,param_id,RC2_DZ,param_type,4,,Len,33
2014-11-10T14:35:36.722,FE,14, 1, 1, 1,4A,mavlink_vfr_hud_t,airspeed,0.09,groundspeed,0.09,alt,78.57,climb,0,heading,84,throttle,97,,Len,28
2014-11-10T14:35:36.722,FE,1C, 2, 1, 1,1E,mavlink_attitude_t,time_boot_ms,2095435,roll,-0.008751862,pitch,-0.009738016,yaw,1.483548,rollspeed,0.1620218,pitchspeed,-0.04730555,yawspeed,0.01491239,,Len,36
2014-11-10T14:35:36.753,FE,19, 3, 1, 1,16,mavlink_param_value_t,param_value,0,param_count,244,param_index,33,param_id,RC2_FUNCTION,param_type,2,,Len,33
2014-11-10T14:35:36.753,FE,19, 4, 1, 1,16,mavlink_param_value_t,param_value,1224,param_count,244,param_index,34,param_id,RC3_MIN,param_type,4,,Len,33
2014-11-10T14:35:36.753,FE,19, 5, 1, 1,16,mavlink_param_value_t,param_value,1232,param_count,244,param_index,35,param_id,RC3_TRIM,param_type,4,,Len,33
2014-11-10T14:35:36.815,FE,19, 6, 1, 1,16,mavlink_param_value_t,param_value,1923,param_count,244,param_index,36,param_id,RC3_MAX,param_type,4,,Len,33
2014-11-10T14:35:36.940,FE,19, 7, 1, 1,16,mavlink_param_value_t,param_value,1,param_count,244,param_index,37,param_id,RC3_REV,param_type,2,,Len,33
2014-11-10T14:35:36.940,FE,19, 8, 1, 1,16,mavlink_param_value_t,param_value,30,param_count,244,param_index,38,param_id,RC3_DZ,param_type,4,,Len,33
2014-11-10T14:35:37.034,FE,1C, 9, 1, 1,21,mavlink_global_position_int_t,time_boot_ms,2095474,lat,406259161,lon,-754604134,alt,78070,relative_alt,1120,vx,0,vy,-8,vz,14,hdg,8516,,Len,36
2014-11-10T14:35:37.049,FE, 9, A, 1, 1, 0,mavlink_heartbeat_t,custom_mode,0,type,10,autopilot,3,base_mode,193,system_status,4,mavlink_version,3,,Len,17
2014-11-10T14:35:37.065,FE, 9,7E,FF,BE, 0,mavlink_heartbeat_t,custom_mode,0,type,6,autopilot,8,base_mode,0,system_status,0,mavlink_version,3,,Len,17
2014-11-10T14:35:37.158,FE,19, B, 1, 1,16,mavlink_param_value_t,param_value,1498,param_count,244,param_index,39,param_id,RC4_MIN,param_type,4,,Len,33
2014-11-10T14:35:37.174,FE,19, C, 1, 1,16,mavlink_param_value_t,param_value,1499,param_count,244,param_index,40,param_id,RC4_TRIM,param_type,4,,Len,33
2014-11-10T14:35:37.174,FE,19, D, 1, 1,16,mavlink_param_value_t,param_value,1499,param_count,244,param_index,41,param_id,RC4_MAX,param_type,4,,Len,33
2014-11-10T14:35:37.205,FE,14, E, 1, 1,4A,mavlink_vfr_hud_t,airspeed,0.08,groundspeed,0.08,alt,78.4,climb,0,heading,85,throttle,97,,Len,28
2014-11-10T14:35:37.205,FE,19, F, 1, 1,16,mavlink_param_value_t,param_value,1,param_count,244,param_index,42,param_id,RC4_REV,param_type,2,,Len,33
2014-11-10T14:35:37.205,FE,19,10, 1, 1,16,mavlink_param_value_t,param_value,0,param_count,244,param_index,43,param_id,RC4_DZ,param_type,4,,Len,33
2014-11-10T14:35:37.221,FE,19,11, 1, 1,16,mavlink_param_value_t,param_value,0,param_count,244,param_index,44,param_id,RC4_FUNCTION,param_type,2,,Len,33
2014-11-10T14:35:37.236,FE,1C,12, 1, 1,1E,mavlink_attitude_t,time_boot_ms,2095857,roll,-0.02701707,pitch,-0.0005344649,yaw,1.481722,rollspeed,-0.1024367,pitchspeed,0.02878614,yawspeed,-0.03483987,,Len,36
2014-11-10T14:35:37.236,FE,19,13, 1, 1,16,mavlink_param_value_t,param_value,1553,param_count,244,param_index,45,param_id,RC5_MIN,param_type,4,,Len,33
2014-11-10T14:35:37.252,FE, 9,CC,33,44,A6,mavlink_radio_t,rxerrors,324,fixed,599,rssi,111,remrssi,116,txbuf,100,noise,42,remnoise,20,,Len,17
2014-11-10T14:35:37.252,FE, 9,CC,33,44,6D,mavlink_radio_status_t,rxerrors,324,fixed,599,rssi,111,remrssi,116,txbuf,100,noise,42,remnoise,20,,Len,17
2014-11-10T14:35:37.346,FE,19,14, 1, 1,16,mavlink_param_value_t,param_value,1553,param_count,244,param_index,46,param_id,RC5_TRIM,param_type,4,,Len,33
2014-11-10T14:35:37.346,FE,19,15, 1, 1,16,mavlink_param_value_t,param_value,1554,param_count,244,param_index,47,param_id,RC5_MAX,param_type,4,,Len,33
2014-11-10T14:35:37.346,FE,19,16, 1, 1,16,mavlink_param_value_t,param_value,1,param_count,244,param_index,48,param_id,RC5_REV,param_type,2,,Len,33
2014-11-10T14:35:37.346,FE,19,17, 1, 1,16,mavlink_param_value_t,param_value,0,param_count,244,param_index,49,param_id,RC5_DZ,param_type,4,,Len,33
2014-11-10T14:35:37.346,FE,19,18, 1, 1,16,mavlink_param_value_t,param_value,0,param_count,244,param_index,50,param_id,RC5_FUNCTION,param_type,2,,Len,33
2014-11-10T14:35:37.392,FE,19,19, 1, 1,16,mavlink_param_value_t,param_value,1498,param_count,244,param_index,51,param_id,RC6_MIN,param_type,4,,Len,33
2014-11-10T14:35:37.408,FE,19,1A, 1, 1,16,mavlink_param_value_t,param_value,1499,param_count,244,param_index,52,param_id,RC6_TRIM,param_type,4,,Len,33
2014-11-10T14:35:37.408,FE,19,1B, 1, 1,16,mavlink_param_value_t,param_value,1499,param_count,244,param_index,53,param_id,RC6_MAX,param_type,4,,Len,33
2014-11-10T14:35:37.455,FE,14,1C, 1, 1,4A,mavlink_vfr_hud_t,airspeed,0.14,groundspeed,0.14,alt,78.47,climb,0,heading,84,throttle,97,,Len,28
2014-11-10T14:35:37.455,FE,1C,1D, 1, 1,1E,mavlink_attitude_t,time_boot_ms,2096277,roll,-0.015152,pitch,-0.0114252,yaw,1.481186,rollspeed,0.163086,pitchspeed,-0.006333102,yawspeed,0.03167385,,Len,36
2014-11-10T14:35:37.517,FE,19,1E, 1, 1,16,mavlink_param_value_t,param_value,1,param_count,244,param_index,54,param_id,RC6_REV,param_type,2,,Len,33
2014-11-10T14:35:37.517,FE,19,1F, 1, 1,16,mavlink_param_value_t,param_value,0,param_count,244,param_index,55,param_id,RC6_DZ,param_type,4,,Len,33
2014-11-10T14:35:37.611,FE,19,20, 1, 1,16,mavlink_param_value_t,param_value,0,param_count,244,param_index,56,param_id,RC6_FUNCTION,param_type,2,,Len,33
2014-11-10T14:35:37.626,FE,1A,21, 1, 1,1B,mavlink_raw_imu_t,time_usec,2096398465,xacc,-7,yacc,-6,zacc,-966,xgyro,133,ygyro,33,zgyro,10,xmag,-12,ymag,-136,zmag,319,,Len,34
2014-11-10T14:35:37.736,FE,19,22, 1, 1,16,mavlink_param_value_t,param_value,966,param_count,244,param_index,57,param_id,RC7_MIN,param_type,4,,Len,33
2014-11-10T14:35:37.860,FE,19,23, 1, 1,16,mavlink_param_value_t,param_value,967,param_count,244,param_index,58,param_id,RC7_TRIM,param_type,4,,Len,33
2014-11-10T14:35:37.860,FE,19,24, 1, 1,16,mavlink_param_value_t,param_value,2073,param_count,244,param_index,59,param_id,RC7_MAX,param_type,4,,Len,33
2014-11-10T14:35:37.970,FE,1F,25, 1, 1, 1,mavlink_sys_status_t,onboard_control_sensors_present,2153511,onboard_control_sensors_enabled,2097191,onboard_control_sensors_health,2153511,load,382,voltage_battery,0,current_battery,-1,drop_rate_comm,0,errors_comm,0,errors_count1,0,errors_count2,0,errors_count3,0,errors_count4,0,battery_remaining,255,,Len,39
2014-11-10T14:35:37.970,FE, 4,26, 1, 1,98,mavlink_meminfo_t,brkval,5857,freemem,2279,,Len,12
2014-11-10T14:35:37.970,FE, 2,27, 1, 1,2A,mavlink_mission_current_t,seq,6,,Len,10
2014-11-10T14:35:38.063,FE, 9,7F,FF,BE, 0,mavlink_heartbeat_t,custom_mode,0,type,6,autopilot,8,base_mode,0,system_status,0,mavlink_version,3,,Len,17
2014-11-10T14:35:38.094,FE,1E,28, 1, 1,18,mavlink_gps_raw_int_t,time_usec,2096476000,lat,406259173,lon,-754604153,alt,78070,eph,163,epv,65535,vel,2,cog,32760,fix_type,3,satellites_visible,11,,Len,38
2014-11-10T14:35:38.094,FE,15,29, 1, 1,24,mavlink_servo_output_raw_t,time_usec,2096479367,servo1_raw,1475,servo2_raw,1499,servo3_raw,1231,servo4_raw,1499,servo5_raw,1553,servo6_raw,1499,servo7_raw,967,servo8_raw,2073,port,0,,Len,29
2014-11-10T14:35:38.094,FE,16,2A, 1, 1,23,mavlink_rc_channels_raw_t,time_boot_ms,2096536,chan1_raw,1475,chan2_raw,1499,chan3_raw,1231,chan4_raw,1499,chan5_raw,1553,chan6_raw,1499,chan7_raw,967,chan8_raw,2073,port,0,rssi,0,,Len,30
2014-11-10T14:35:38.110,FE,1C,2B, 1, 1,A3,mavlink_ahrs_t,omegaIx,-0.0008968838,omegaIy,0.001113769,omegaIz,-0.0008194229,accel_weight,0,renorm_val,0,error_rp,0.03050087,error_yaw,0.005424051,,Len,36
2014-11-10T14:35:38.110,FE, 3,2C, 1, 1,A5,mavlink_hwstatus_t,Vcc,4940,I2Cerr,0,,Len,11
2014-11-10T14:35:38.126,FE, C,2D, 1, 1, 2,mavlink_system_time_t,time_unix_usec,1415648138501000,time_boot_ms,2096537,,Len,20
2014-11-10T14:35:38.126,FE,19,2E, 1, 1,16,mavlink_param_value_t,param_value,1,param_count,244,param_index,60,param_id,RC7_REV,param_type,2,,Len,33
2014-11-10T14:35:38.141,FE,19,2F, 1, 1,16,mavlink_param_value_t,param_value,0,param_count,244,param_index,61,param_id,RC7_DZ,param_type,4,,Len,33
2014-11-10T14:35:38.141,FE,19,30, 1, 1,16,mavlink_param_value_t,param_value,0,param_count,244,param_index,62,param_id,RC7_FUNCTION,param_type,2,,Len,33
2014-11-10T14:35:38.157,FE,14,31, 1, 1,4A,mavlink_vfr_hud_t,airspeed,0.02,groundspeed,0.02,alt,78.54,climb,0,heading,84,throttle,97,,Len,28
2014-11-10T14:35:38.250,FE,19,33, 1, 1,16,mavlink_param_value_t,param_value,2073,param_count,244,param_index,64,param_id,RC8_TRIM,param_type,4,,Len,33
2014-11-10T14:35:38.250,FE,19,34, 1, 1,16,mavlink_param_value_t,param_value,2073,param_count,244,param_index,65,param_id,RC8_MAX,param_type,4,,Len,33
2014-11-10T14:35:38.266,FE,1C,35, 1, 1,1E,mavlink_attitude_t,time_boot_ms,2096701,roll,-0.0306378,pitch,-0.005676107,yaw,1.475873,rollspeed,-0.2471706,pitchspeed,-0.0175074,yawspeed,-0.02872061,,Len,36
2014-11-10T14:35:38.266,FE, 9,36, 1, 1, 0,mavlink_heartbeat_t,custom_mode,0,type,10,autopilot,3,base_mode,193,system_status,4,mavlink_version,3,,Len,17
2014-11-10T14:35:38.266,FE,19,37, 1, 1,16,mavlink_param_value_t,param_value,1,param_count,244,param_index,66,param_id,RC8_REV,param_type,2,,Len,33
2014-11-10T14:35:38.328,FE,19,38, 1, 1,16,mavlink_param_value_t,param_value,0,param_count,244,param_index,67,param_id,RC8_DZ,param_type,4,,Len,33
2014-11-10T14:35:38.328,FE,19,39, 1, 1,16,mavlink_param_value_t,param_value,0,param_count,244,param_index,68,param_id,RC8_FUNCTION,param_type,2,,Len,33
2014-11-10T14:35:38.328,FE,19,3A, 1, 1,16,mavlink_param_value_t,param_value,1100,param_count,244,param_index,69,param_id,RC10_MIN,param_type,4,,Len,33
2014-11-10T14:35:38.360,FE,19,3B, 1, 1,16,mavlink_param_value_t,param_value,1500,param_count,244,param_index,70,param_id,RC10_TRIM,param_type,4,,Len,33
2014-11-10T14:35:38.360,FE,19,3C, 1, 1,16,mavlink_param_value_t,param_value,1900,param_count,244,param_index,71,param_id,RC10_MAX,param_type,4,,Len,33
2014-11-10T14:35:38.360,FE,1C,3D, 1, 1,21,mavlink_global_position_int_t,time_boot_ms,2096857,lat,406259177,lon,-754604150,alt,78000,relative_alt,1000,vx,16,vy,-4,vz,13,hdg,8479,,Len,36
2014-11-10T14:35:38.391,FE,19,3E, 1, 1,16,mavlink_param_value_t,param_value,1,param_count,244,param_index,72,param_id,RC10_REV,param_type,2,,Len,33
2014-11-10T14:35:38.391,FE,19,3F, 1, 1,16,mavlink_param_value_t,param_value,0,param_count,244,param_index,73,param_id,RC10_DZ,param_type,4,,Len,33
2014-11-10T14:35:38.391,FE,19,40, 1, 1,16,mavlink_param_value_t,param_value,0,param_count,244,param_index,74,param_id,RC10_FUNCTION,param_type,2,,Len,33
2014-11-10T14:35:38.438,FE,14,41, 1, 1,4A,mavlink_vfr_hud_t,airspeed,0.01,groundspeed,0.01,alt,78.42,climb,0,heading,84,throttle,97,,Len,28
2014-11-10T14:35:38.438,FE,1C,42, 1, 1,1E,mavlink_attitude_t,time_boot_ms,2097118,roll,0.01418939,pitch,-0.007066588,yaw,1.483418,rollspeed,0.2785539,pitchspeed,0.03224486,yawspeed,0.01970138,,Len,36
2014-11-10T14:35:38.562,FE,19,43, 1, 1,16,mavlink_param_value_t,param_value,1100,param_count,244,param_index,75,param_id,RC11_MIN,param_type,4,,Len,33
2014-11-10T14:35:38.562,FE,19,44, 1, 1,16,mavlink_param_value_t,param_value,1500,param_count,244,param_index,76,param_id,RC11_TRIM,param_type,4,,Len,33
2014-11-10T14:35:38.562,FE,19,45, 1, 1,16,mavlink_param_value_t,param_value,1900,param_count,244,param_index,77,param_id,RC11_MAX,param_type,4,,Len,33
2014-11-10T14:35:38.562,FE,19,46, 1, 1,16,mavlink_param_value_t,param_value,1,param_count,244,param_index,78,param_id,RC11_REV,param_type,2,,Len,33
2014-11-10T14:35:38.594,FE,19,47, 1, 1,16,mavlink_param_value_t,param_value,0,param_count,244,param_index,79,param_id,RC11_DZ,param_type,4,,Len,33
2014-11-10T14:35:38.594,FE,19,48, 1, 1,16,mavlink_param_value_t,param_value,0,param_count,244,param_index,80,param_id,RC11_FUNCTION,param_type,2,,Len,33
2014-11-10T14:35:38.625,FE,19,49, 1, 1,16,mavlink_param_value_t,param_value,0,param_count,244,param_index,81,param_id,THR_MIN,param_type,2,,Len,33
2014-11-10T14:35:38.625,FE,19,4A, 1, 1,16,mavlink_param_value_t,param_value,100,param_count,244,param_index,82,param_id,THR_MAX,param_type,2,,Len,33
2014-11-10T14:35:38.625,FE,19,4B, 1, 1,16,mavlink_param_value_t,param_value,20,param_count,244,param_index,83,param_id,CRUISE_THROTTLE,param_type,2,,Len,33
2014-11-10T14:35:38.765,FE,14,4C, 1, 1,4A,mavlink_vfr_hud_t,airspeed,0.16,groundspeed,0.16,alt,78.47,climb,0,heading,84,throttle,97,,Len,28
2014-11-10T14:35:38.796,FE,19,4D, 1, 1,16,mavlink_param_value_t,param_value,100,param_count,244,param_index,84,param_id,THR_SLEWRATE,param_type,2,,Len,33
2014-11-10T14:35:38.796,FE,19,4E, 1, 1,16,mavlink_param_value_t,param_value,0,param_count,244,param_index,85,param_id,SKID_STEER_OUT,param_type,2,,Len,33
2014-11-10T14:35:38.796,FE,19,4F, 1, 1,16,mavlink_param_value_t,param_value,0,param_count,244,param_index,86,param_id,SKID_STEER_IN,param_type,2,,Len,33
2014-11-10T14:35:38.812,FE,1C,50, 1, 1,1E,mavlink_attitude_t,time_boot_ms,2097538,roll,-0.06312761,pitch,-0.01061794,yaw,1.476726,rollspeed,-0.1024367,pitchspeed,-0.04836977,yawspeed,0.005866527,,Len,36
2014-11-10T14:35:38.812,FE,19,51, 1, 1,16,mavlink_param_value_t,param_value,2,param_count,244,param_index,87,param_id,FS_ACTION,param_type,2,,Len,33
2014-11-10T14:35:38.843,FE,19,52, 1, 1,16,mavlink_param_value_t,param_value,5,param_count,244,param_index,88,param_id,FS_TIMEOUT,param_type,9,,Len,33
2014-11-10T14:35:38.843,FE,19,53, 1, 1,16,mavlink_param_value_t,param_value,1,param_count,244,param_index,89,param_id,FS_THR_ENABLE,param_type,2,,Len,33
2014-11-10T14:35:38.984,FE, 9,54, 1, 1, 0,mavlink_heartbeat_t,custom_mode,0,type,10,autopilot,3,base_mode,193,system_status,4,mavlink_version,3,,Len,17
2014-11-10T14:35:38.999,FE,19,55, 1, 1,16,mavlink_param_value_t,param_value,910,param_count,244,param_index,90,param_id,FS_THR_VALUE,param_type,4,,Len,33
2014-11-10T14:35:38.999,FE,19,56, 1, 1,16,mavlink_param_value_t,param_value,0,param_count,244,param_index,91,param_id,FS_GCS_ENABLE,param_type,2,,Len,33
2014-11-10T14:35:39.062,FE, 9,80,FF,BE, 0,mavlink_heartbeat_t,custom_mode,0,type,6,autopilot,8,base_mode,0,system_status,0,mavlink_version,3,,Len,17
2014-11-10T14:35:39.124,FE,19,57, 1, 1,16,mavlink_param_value_t,param_value,100,param_count,244,param_index,92,param_id,RNGFND_TRIGGR_CM,param_type,4,,Len,33
2014-11-10T14:35:39.124,FE,19,58, 1, 1,16,mavlink_param_value_t,param_value,45,param_count,244,param_index,93,param_id,RNGFND_TURN_ANGL,param_type,9,,Len,33
2014-11-10T14:35:39.249,FE,19,59, 1, 1,16,mavlink_param_value_t,param_value,1,param_count,244,param_index,94,param_id,RNGFND_TURN_TIME,param_type,9,,Len,33
2014-11-10T14:35:39.249,FE,19,5A, 1, 1,16,mavlink_param_value_t,param_value,2,param_count,244,param_index,95,param_id,RNGFND_DEBOUNCE,param_type,2,,Len,33
2014-11-10T14:35:39.249,FE,14,5B, 1, 1,4A,mavlink_vfr_hud_t,airspeed,0.03,groundspeed,0.03,alt,78.38,climb,0,heading,85,throttle,97,,Len,28
2014-11-10T14:35:39.249,FE,1C,5C, 1, 1,1E,mavlink_attitude_t,time_boot_ms,2097958,roll,0.02150579,pitch,0.0003330968,yaw,1.48853,rollspeed,-0.1984825,pitchspeed,0.04474944,yawspeed,-0.02792244,,Len,36
2014-11-10T14:35:39.280,FE,19,5D, 1, 1,16,mavlink_param_value_t,param_value,7,param_count,244,param_index,96,param_id,LEARN_CH,param_type,2,,Len,33
2014-11-10T14:35:39.280,FE,19,5E, 1, 1,16,mavlink_param_value_t,param_value,8,param_count,244,param_index,97,param_id,MODE_CH,param_type,2,,Len,33
2014-11-10T14:35:39.280,FE,19,5F, 1, 1,16,mavlink_param_value_t,param_value,10,param_count,244,param_index,98,param_id,MODE1,param_type,2,,Len,33
2014-11-10T14:35:39.311,FE,19,60, 1, 1,16,mavlink_param_value_t,param_value,2,param_count,244,param_index,99,param_id,MODE2,param_type,2,,Len,33
2014-11-10T14:35:39.311,FE,19,61, 1, 1,16,mavlink_param_value_t,param_value,2,param_count,244,param_index,100,param_id,MODE3,param_type,2,,Len,33
2014-11-10T14:35:39.311,FE, 9,CE,33,44,A6,mavlink_radio_t,rxerrors,324,fixed,599,rssi,106,remrssi,110,txbuf,100,noise,37,remnoise,19,,Len,17
2014-11-10T14:35:39.311,FE, 9,CE,33,44,6D,mavlink_radio_status_t,rxerrors,324,fixed,599,rssi,106,remrssi,110,txbuf,100,noise,37,remnoise,19,,Len,17
2014-11-10T14:35:39.358,FE,19,62, 1, 1,16,mavlink_param_value_t,param_value,2,param_count,244,param_index,101,param_id,MODE4,param_type,2,,Len,33
2014-11-10T14:35:39.452,FE,19,63, 1, 1,16,mavlink_param_value_t,param_value,2,param_count,244,param_index,102,param_id,MODE5,param_type,2,,Len,33
2014-11-10T14:35:39.467,FE,19,64, 1, 1,16,mavlink_param_value_t,param_value,0,param_count,244,param_index,103,param_id,MODE6,param_type,2,,Len,33
2014-11-10T14:35:39.467,FE,19,65, 1, 1,16,mavlink_param_value_t,param_value,4,param_count,244,param_index,104,param_id,WP_RADIUS,param_type,9,,Len,33
2014-11-10T14:35:39.530,FE,1C,66, 1, 1,21,mavlink_global_position_int_t,time_boot_ms,2098279,lat,406259186,lon,-754604137,alt,78120,relative_alt,1020,vx,14,vy,-16,vz,29,hdg,8522,,Len,36
2014-11-10T14:35:39.530,FE,14,67, 1, 1,4A,mavlink_vfr_hud_t,airspeed,0.21,groundspeed,0.21,alt,78.46,climb,0,heading,85,throttle,97,,Len,28
2014-11-10T14:35:39.530,FE,19,68, 1, 1,16,mavlink_param_value_t,param_value,1,param_count,244,param_index,105,param_id,TURN_MAX_G,param_type,9,,Len,33
2014-11-10T14:35:39.561,FE,19,69, 1, 1,16,mavlink_param_value_t,param_value,0.75,param_count,244,param_index,106,param_id,STEER2SRV_TCONST,param_type,9,,Len,33
2014-11-10T14:35:39.576,FE,19,6A, 1, 1,16,mavlink_param_value_t,param_value,0.5,param_count,244,param_index,107,param_id,STEER2SRV_P,param_type,9,,Len,33
2014-11-10T14:35:39.670,FE,1C,6B, 1, 1,1E,mavlink_attitude_t,time_boot_ms,2098381,roll,-0.03964249,pitch,-0.01364273,yaw,1.489927,rollspeed,0.3466639,pitchspeed,-0.007663377,yawspeed,0.06386649,,Len,36
2014-11-10T14:35:39.686,FE,1A,6C, 1, 1,1B,mavlink_raw_imu_t,time_usec,2098420733,xacc,-18,yacc,38,zacc,-942,xgyro,401,ygyro,19,zgyro,64,xmag,-12,ymag,-151,zmag,314,,Len,34
2014-11-10T14:35:39.810,FE,1F,6D, 1, 1, 1,mavlink_sys_status_t,onboard_control_sensors_present,2153511,onboard_control_sensors_enabled,2097191,onboard_control_sensors_health,2153511,load,380,voltage_battery,0,current_battery,-1,drop_rate_comm,0,errors_comm,0,errors_count1,0,errors_count2,0,errors_count3,0,errors_count4,0,battery_remaining,255,,Len,39
2014-11-10T14:35:39.810,FE, 4,6E, 1, 1,98,mavlink_meminfo_t,brkval,5857,freemem,2279,,Len,12
2014-11-10T14:35:39.810,FE, 2,6F, 1, 1,2A,mavlink_mission_current_t,seq,6,,Len,10
2014-11-10T14:35:39.842,FE,1E,70, 1, 1,18,mavlink_gps_raw_int_t,time_usec,2098479000,lat,406259195,lon,-754604142,alt,78250,eph,164,epv,65535,vel,24,cog,31745,fix_type,3,satellites_visible,11,,Len,38
2014-11-10T14:35:39.857,FE,19,71, 1, 1,16,mavlink_param_value_t,param_value,0.2,param_count,244,param_index,108,param_id,STEER2SRV_I,param_type,9,,Len,33
2014-11-10T14:35:39.857,FE,19,72, 1, 1,16,mavlink_param_value_t,param_value,0.005,param_count,244,param_index,109,param_id,STEER2SRV_D,param_type,9,,Len,33
2014-11-10T14:35:39.888,FE,19,73, 1, 1,16,mavlink_param_value_t,param_value,1500,param_count,244,param_index,110,param_id,STEER2SRV_IMAX,param_type,4,,Len,33
2014-11-10T14:35:39.888,FE,15,74, 1, 1,24,mavlink_servo_output_raw_t,time_usec,2098504764,servo1_raw,1475,servo2_raw,1499,servo3_raw,1231,servo4_raw,1499,servo5_raw,1553,servo6_raw,1499,servo7_raw,967,servo8_raw,2073,port,0,,Len,29
2014-11-10T14:35:39.888,FE,16,75, 1, 1,23,mavlink_rc_channels_raw_t,time_boot_ms,2098539,chan1_raw,1475,chan2_raw,1499,chan3_raw,1231,chan4_raw,1499,chan5_raw,1553,chan6_raw,1499,chan7_raw,967,chan8_raw,2073,port,0,rssi,0,,Len,30
2014-11-10T14:35:39.920,FE,1C,76, 1, 1,A3,mavlink_ahrs_t,omegaIx,-0.0008968838,omegaIy,0.001113769,omegaIz,-0.0008194229,accel_weight,0,renorm_val,0,error_rp,0.04010684,error_yaw,0.01094979,,Len,36
2014-11-10T14:35:39.920,FE, 3,77, 1, 1,A5,mavlink_hwstatus_t,Vcc,4918,I2Cerr,0,,Len,11
2014-11-10T14:35:39.920,FE, C,78, 1, 1, 2,mavlink_system_time_t,time_unix_usec,1415648140521000,time_boot_ms,2098560,,Len,20
2014-11-10T14:35:39.935,FE,19,79, 1, 1,16,mavlink_param_value_t,param_value,1,param_count,244,param_index,111,param_id,STEER2SRV_MINSPD,param_type,9,,Len,33
2014-11-10T14:35:39.966,FE,19,7A, 1, 1,16,mavlink_param_value_t,param_value,0.7,param_count,244,param_index,112,param_id,SPEED2THR_P,param_type,9,,Len,33
2014-11-10T14:35:39.998,FE,19,7B, 1, 1,16,mavlink_param_value_t,param_value,0.2,param_count,244,param_index,113,param_id,SPEED2THR_I,param_type,9,,Len,33
2014-11-10T14:35:39.998,FE, 9,7C, 1, 1, 0,mavlink_heartbeat_t,custom_mode,0,type,10,autopilot,3,base_mode,193,system_status,4,mavlink_version,3,,Len,17
2014-11-10T14:35:39.998,FE,19,7D, 1, 1,16,mavlink_param_value_t,param_value,0.2,param_count,244,param_index,114,param_id,SPEED2THR_D,param_type,9,,Len,33
2014-11-10T14:35:39.998,FE,19,7E, 1, 1,16,mavlink_param_value_t,param_value,4000,param_count,244,param_index,115,param_id,SPEED2THR_IMAX,param_type,4,,Len,33
2014-11-10T14:35:40.029,FE,19,7F, 1, 1,16,mavlink_param_value_t,param_value,-59.75731,param_count,244,param_index,116,param_id,COMPASS_OFS_X,param_type,9,,Len,33
2014-11-10T14:35:40.044,FE,14,80, 1, 1,4A,mavlink_vfr_hud_t,airspeed,0.01,groundspeed,0.01,alt,78.44,climb,0,heading,85,throttle,97,,Len,28
2014-11-10T14:35:40.060,FE, 9,81,FF,BE, 0,mavlink_heartbeat_t,custom_mode,0,type,6,autopilot,8,base_mode,0,system_status,0,mavlink_version,3,,Len,17
2014-11-10T14:35:40.138,FE,1C,81, 1, 1,1E,mavlink_attitude_t,time_boot_ms,2098802,roll,-0.02783037,pitch,-0.002089871,yaw,1.497967,rollspeed,-0.346409,pitchspeed,-0.03160832,yawspeed,-0.008234383,,Len,36
2014-11-10T14:35:40.154,FE,19,82, 1, 1,16,mavlink_param_value_t,param_value,-5.307525,param_count,244,param_index,117,param_id,COMPASS_OFS_Y,param_type,9,,Len,33
2014-11-10T14:35:40.154,FE, 9,CF,33,44,A6,mavlink_radio_t,rxerrors,324,fixed,599,rssi,108,remrssi,113,txbuf,100,noise,40,remnoise,20,,Len,17
2014-11-10T14:35:40.154,FE, 9,CF,33,44,6D,mavlink_radio_status_t,rxerrors,324,fixed,599,rssi,108,remrssi,113,txbuf,100,noise,40,remnoise,20,,Len,17
2014-11-10T14:35:40.247,FE,19,83, 1, 1,16,mavlink_param_value_t,param_value,63.2817,param_count,244,param_index,118,param_id,COMPASS_OFS_Z,param_type,9,,Len,33
2014-11-10T14:35:40.372,FE,19,84, 1, 1,16,mavlink_param_value_t,param_value,-0.2068042,param_count,244,param_index,119,param_id,COMPASS_DEC,param_type,9,,Len,33
2014-11-10T14:35:40.388,FE,19,85, 1, 1,16,mavlink_param_value_t,param_value,1,param_count,244,param_index,120,param_id,COMPASS_LEARN,param_type,2,,Len,33
2014-11-10T14:35:40.388,FE,19,86, 1, 1,16,mavlink_param_value_t,param_value,1,param_count,244,param_index,121,param_id,COMPASS_USE,param_type,2,,Len,33
2014-11-10T14:35:40.403,FE,19,87, 1, 1,16,mavlink_param_value_t,param_value,1,param_count,244,param_index,122,param_id,COMPASS_AUTODEC,param_type,2,,Len,33
2014-11-10T14:35:40.419,FE,19,88, 1, 1,16,mavlink_param_value_t,param_value,0,param_count,244,param_index,123,param_id,COMPASS_MOTCT,param_type,2,,Len,33
2014-11-10T14:35:40.419,FE,19,89, 1, 1,16,mavlink_param_value_t,param_value,0,param_count,244,param_index,124,param_id,COMPASS_MOT_X,param_type,9,,Len,33
2014-11-10T14:35:40.450,FE,19,8A, 1, 1,16,mavlink_param_value_t,param_value,0,param_count,244,param_index,125,param_id,COMPASS_MOT_Y,param_type,9,,Len,33
2014-11-10T14:35:40.450,FE,14,8B, 1, 1,4A,mavlink_vfr_hud_t,airspeed,0.25,groundspeed,0.25,alt,78.5,climb,0,heading,86,throttle,97,,Len,28
2014-11-10T14:35:40.450,FE,19,8C, 1, 1,16,mavlink_param_value_t,param_value,0,param_count,244,param_index,126,param_id,COMPASS_MOT_Z,param_type,9,,Len,33
2014-11-10T14:35:40.466,FE,19,8D, 1, 1,16,mavlink_param_value_t,param_value,8,param_count,244,param_index,127,param_id,COMPASS_ORIENT,param_type,2,,Len,33
2014-11-10T14:35:40.481,FE,19,8E, 1, 1,16,mavlink_param_value_t,param_value,0,param_count,244,param_index,128,param_id,COMPASS_EXTERNAL,param_type,2,,Len,33
2014-11-10T14:35:40.544,FE,1C,8F, 1, 1,1E,mavlink_attitude_t,time_boot_ms,2099223,roll,0.00728761,pitch,-0.005112422,yaw,1.512928,rollspeed,0.2527466,pitchspeed,0.03703384,yawspeed,0.03859128,,Len,36
2014-11-10T14:35:40.544,FE,19,90, 1, 1,16,mavlink_param_value_t,param_value,0,param_count,244,param_index,129,param_id,SCHED_DEBUG,param_type,2,,Len,33
2014-11-10T14:35:40.544,FE,19,91, 1, 1,16,mavlink_param_value_t,param_value,101206.9,param_count,244,param_index,130,param_id,GND_ABS_PRESS,param_type,9,,Len,33
2014-11-10T14:35:40.544,FE,19,92, 1, 1,16,mavlink_param_value_t,param_value,28.54185,param_count,244,param_index,131,param_id,GND_TEMP,param_type,9,,Len,33
2014-11-10T14:35:40.715,FE,19,93, 1, 1,16,mavlink_param_value_t,param_value,0,param_count,244,param_index,132,param_id,GND_ALT_OFFSET,param_type,2,,Len,33
2014-11-10T14:35:40.840,FE,19,94, 1, 1,16,mavlink_param_value_t,param_value,13,param_count,244,param_index,133,param_id,RELAY_PIN,param_type,2,,Len,33
2014-11-10T14:35:40.856,FE,19,95, 1, 1,16,mavlink_param_value_t,param_value,-1,param_count,244,param_index,134,param_id,RELAY_PIN2,param_type,2,,Len,33
2014-11-10T14:35:40.856,FE,19,96, 1, 1,16,mavlink_param_value_t,param_value,-1,param_count,244,param_index,135,param_id,RELAY_PIN3,param_type,2,,Len,33
2014-11-10T14:35:40.887,FE,19,97, 1, 1,16,mavlink_param_value_t,param_value,-1,param_count,244,param_index,136,param_id,RELAY_PIN4,param_type,2,,Len,33
2014-11-10T14:35:40.887,FE,19,98, 1, 1,16,mavlink_param_value_t,param_value,1,param_count,244,param_index,137,param_id,RCMAP_ROLL,param_type,2,,Len,33
2014-11-10T14:35:40.887,FE,14,99, 1, 1,4A,mavlink_vfr_hud_t,airspeed,0.08,groundspeed,0.08,alt,78.54,climb,0,heading,87,throttle,97,,Len,28
2014-11-10T14:35:40.902,FE,1C,9A, 1, 1,1E,mavlink_attitude_t,time_boot_ms,2099642,roll,-0.05074382,pitch,-0.00994341,yaw,1.524994,rollspeed,-0.03682121,pitchspeed,0.008607115,yawspeed,0.04334997,,Len,36
2014-11-10T14:35:40.918,FE,1C,9B, 1, 1,21,mavlink_global_position_int_t,time_boot_ms,2099662,lat,406259223,lon,-754604167,alt,78580,relative_alt,1170,vx,14,vy,-4,vz,14,hdg,8747,,Len,36
2014-11-10T14:35:40.918,FE,19,9C, 1, 1,16,mavlink_param_value_t,param_value,2,param_count,244,param_index,138,param_id,RCMAP_PITCH,param_type,2,,Len,33
2014-11-10T14:35:40.965,FE,19,9D, 1, 1,16,mavlink_param_value_t,param_value,3,param_count,244,param_index,139,param_id,RCMAP_THROTTLE,param_type,2,,Len,33
2014-11-10T14:35:40.965,FE,19,9E, 1, 1,16,mavlink_param_value_t,param_value,4,param_count,244,param_index,140,param_id,RCMAP_YAW,param_type,2,,Len,33
2014-11-10T14:35:41.058,FE, 9,82,FF,BE, 0,mavlink_heartbeat_t,custom_mode,0,type,6,autopilot,8,base_mode,0,system_status,0,mavlink_version,3,,Len,17
2014-11-10T14:35:41.058,FE, 9,9F, 1, 1, 0,mavlink_heartbeat_t,custom_mode,0,type,10,autopilot,3,base_mode,193,system_status,4,mavlink_version,3,,Len,17
2014-11-10T14:35:41.074,FE,19,A0, 1, 1,16,mavlink_param_value_t,param_value,2,param_count,244,param_index,141,param_id,SR0_RAW_SENS,param_type,4,,Len,33
2014-11-10T14:35:41.074,FE,19,A1, 1, 1,16,mavlink_param_value_t,param_value,2,param_count,244,param_index,142,param_id,SR0_EXT_STAT,param_type,4,,Len,33
2014-11-10T14:35:41.152,FE, 9,D0,33,44,A6,mavlink_radio_t,rxerrors,324,fixed,599,rssi,112,remrssi,114,txbuf,100,noise,55,remnoise,19,,Len,17
2014-11-10T14:35:41.152,FE, 9,D0,33,44,6D,mavlink_radio_status_t,rxerrors,324,fixed,599,rssi,112,remrssi,114,txbuf,100,noise,55,remnoise,19,,Len,17
2014-11-10T14:35:41.230,FE,19,A2, 1, 1,16,mavlink_param_value_t,param_value,2,param_count,244,param_index,143,param_id,SR0_RC_CHAN,param_type,4,,Len,33
2014-11-10T14:35:41.230,FE,19,A3, 1, 1,16,mavlink_param_value_t,param_value,1,param_count,244,param_index,144,param_id,SR0_RAW_CTRL,param_type,4,,Len,33
2014-11-10T14:35:41.230,FE,19,A4, 1, 1,16,mavlink_param_value_t,param_value,3,param_count,244,param_index,145,param_id,SR0_POSITION,param_type,4,,Len,33
2014-11-10T14:35:41.261,FE,19,A5, 1, 1,16,mavlink_param_value_t,param_value,10,param_count,244,param_index,146,param_id,SR0_EXTRA1,param_type,4,,Len,33
2014-11-10T14:35:41.261,FE,14,A6, 1, 1,4A,mavlink_vfr_hud_t,airspeed,0.03,groundspeed,0.03,alt,78.77,climb,0,heading,88,throttle,97,,Len,28
2014-11-10T14:35:41.261,FE,19,A7, 1, 1,16,mavlink_param_value_t,param_value,10,param_count,244,param_index,147,param_id,SR0_EXTRA2,param_type,4,,Len,33
2014-11-10T14:35:41.308,FE,19,A8, 1, 1,16,mavlink_param_value_t,param_value,2,param_count,244,param_index,148,param_id,SR0_EXTRA3,param_type,4,,Len,33
2014-11-10T14:35:41.308,FE,19,A9, 1, 1,16,mavlink_param_value_t,param_value,10,param_count,244,param_index,149,param_id,SR0_PARAMS,param_type,4,,Len,33
2014-11-10T14:35:41.417,FE,1C,AA, 1, 1,1E,mavlink_attitude_t,time_boot_ms,2100064,roll,-0.0006133491,pitch,-0.008048546,yaw,1.54715,rollspeed,-0.1512248,pitchspeed,-0.03742038,yawspeed,0.0643683,,Len,36
2014-11-10T14:35:41.433,FE,19,AB, 1, 1,16,mavlink_param_value_t,param_value,1,param_count,244,param_index,150,param_id,SR1_RAW_SENS,param_type,4,,Len,33
2014-11-10T14:35:41.448,FE,19,AC, 1, 1,16,mavlink_param_value_t,param_value,1,param_count,244,param_index,151,param_id,SR1_EXT_STAT,param_type,4,,Len,33
2014-11-10T14:35:41.448,FE,19,AD, 1, 1,16,mavlink_param_value_t,param_value,1,param_count,244,param_index,152,param_id,SR1_RC_CHAN,param_type,4,,Len,33
2014-11-10T14:35:41.448,FE,19,AE, 1, 1,16,mavlink_param_value_t,param_value,1,param_count,244,param_index,153,param_id,SR1_RAW_CTRL,param_type,4,,Len,33
2014-11-10T14:35:41.464,FE,19,AF, 1, 1,16,mavlink_param_value_t,param_value,1,param_count,244,param_index,154,param_id,SR1_POSITION,param_type,4,,Len,33
2014-11-10T14:35:41.480,FE,19,B0, 1, 1,16,mavlink_param_value_t,param_value,1,param_count,244,param_index,155,param_id,SR1_EXTRA1,param_type,4,,Len,33
2014-11-10T14:35:41.636,FE,19,B1, 1, 1,16,mavlink_param_value_t,param_value,1,param_count,244,param_index,156,param_id,SR1_EXTRA2,param_type,4,,Len,33
2014-11-10T14:35:41.651,FE,19,B2, 1, 1,16,mavlink_param_value_t,param_value,1,param_count,244,param_index,157,param_id,SR1_EXTRA3,param_type,4,,Len,33
2014-11-10T14:35:41.745,FE,19,B3, 1, 1,16,mavlink_param_value_t,param_value,10,param_count,244,param_index,158,param_id,SR1_PARAMS,param_type,4,,Len,33
2014-11-10T14:35:41.760,FE,1A,B4, 1, 1,1B,mavlink_raw_imu_t,time_usec,2100444061,xacc,-2,yacc,56,zacc,-954,xgyro,195,ygyro,23,zgyro,83,xmag,-25,ymag,-151,zmag,313,,Len,34
2014-11-10T14:35:41.870,FE,1C,B5, 1, 1,1E,mavlink_attitude_t,time_boot_ms,2100485,roll,-0.02313225,pitch,-0.005834504,yaw,1.578332,rollspeed,0.2310961,pitchspeed,0.02457041,yawspeed,0.08139581,,Len,36
2014-11-10T14:35:41.979,FE,14,B6, 1, 1,4A,mavlink_vfr_hud_t,airspeed,0.11,groundspeed,0.11,alt,78.9,climb,0,heading,90,throttle,97,,Len,28
2014-11-10T14:35:41.994,FE,1F,B7, 1, 1, 1,mavlink_sys_status_t,onboard_control_sensors_present,2153511,onboard_control_sensors_enabled,2097191,onboard_control_sensors_health,2153511,load,382,voltage_battery,0,current_battery,-1,drop_rate_comm,0,errors_comm,0,errors_count1,0,errors_count2,0,errors_count3,0,errors_count4,0,battery_remaining,255,,Len,39
2014-11-10T14:35:41.994,FE, 4,B8, 1, 1,98,mavlink_meminfo_t,brkval,5857,freemem,2279,,Len,12
2014-11-10T14:35:41.994,FE, 2,B9, 1, 1,2A,mavlink_mission_current_t,seq,6,,Len,10
2014-11-10T14:35:42.041,FE,1E,BA, 1, 1,18,mavlink_gps_raw_int_t,time_usec,2100463000,lat,406259226,lon,-754604171,alt,78630,eph,164,epv,65535,vel,11,cog,32289,fix_type,3,satellites_visible,11,,Len,38
2014-11-10T14:35:42.041,FE,15,BB, 1, 1,24,mavlink_servo_output_raw_t,time_usec,2100523874,servo1_raw,1475,servo2_raw,1499,servo3_raw,1231,servo4_raw,1499,servo5_raw,1553,servo6_raw,1499,servo7_raw,967,servo8_raw,2073,port,0,,Len,29
2014-11-10T14:35:42.041,FE,16,BC, 1, 1,23,mavlink_rc_channels_raw_t,time_boot_ms,2100523,chan1_raw,1475,chan2_raw,1499,chan3_raw,1231,chan4_raw,1499,chan5_raw,1554,chan6_raw,1499,chan7_raw,966,chan8_raw,2073,port,0,rssi,0,,Len,30
2014-11-10T14:35:42.057,FE, 9,83,FF,BE, 0,mavlink_heartbeat_t,custom_mode,0,type,6,autopilot,8,base_mode,0,system_status,0,mavlink_version,3,,Len,17
2014-11-10T14:35:42.072,FE,19,BD, 1, 1,16,mavlink_param_value_t,param_value,8,param_count,244,param_index,159,param_id,NAVL1_PERIOD,param_type,9,,Len,33
2014-11-10T14:35:42.072,FE,19,BE, 1, 1,16,mavlink_param_value_t,param_value,0.75,param_count,244,param_index,160,param_id,NAVL1_DAMPING,param_type,9,,Len,33
2014-11-10T14:35:42.072,FE,19,BF, 1, 1,16,mavlink_param_value_t,param_value,0,param_count,244,param_index,161,param_id,RNGFND_TYPE,param_type,2,,Len,33
2014-11-10T14:35:42.119,FE,1C,C0, 1, 1,A3,mavlink_ahrs_t,omegaIx,-0.0007308772,omegaIy,0.00115491,omegaIz,-0.0008497225,accel_weight,0,renorm_val,0,error_rp,0.01726707,error_yaw,0.008536513,,Len,36
2014-11-10T14:35:42.119,FE, 3,C1, 1, 1,A5,mavlink_hwstatus_t,Vcc,4918,I2Cerr,0,,Len,11
2014-11-10T14:35:42.119,FE, C,C2, 1, 1, 2,mavlink_system_time_t,time_unix_usec,1415648142582000,time_boot_ms,2100624,,Len,20
2014-11-10T14:35:42.228,FE,19,C3, 1, 1,16,mavlink_param_value_t,param_value,-1,param_count,244,param_index,162,param_id,RNGFND_PIN,param_type,2,,Len,33
2014-11-10T14:35:42.228,FE,19,C4, 1, 1,16,mavlink_param_value_t,param_value,3,param_count,244,param_index,163,param_id,RNGFND_SCALING,param_type,9,,Len,33
2014-11-10T14:35:42.228,FE,19,C5, 1, 1,16,mavlink_param_value_t,param_value,0,param_count,244,param_index,164,param_id,RNGFND_OFFSET,param_type,9,,Len,33
2014-11-10T14:35:42.244,FE, 9,C6, 1, 1, 0,mavlink_heartbeat_t,custom_mode,0,type,10,autopilot,3,base_mode,193,system_status,4,mavlink_version,3,,Len,17
2014-11-10T14:35:42.275,FE,19,C7, 1, 1,16,mavlink_param_value_t,param_value,0,param_count,244,param_index,165,param_id,RNGFND_FUNCTION,param_type,2,,Len,33
2014-11-10T14:35:42.275,FE,19,C8, 1, 1,16,mavlink_param_value_t,param_value,20,param_count,244,param_index,166,param_id,RNGFND_MIN_CM,param_type,4,,Len,33
2014-11-10T14:35:42.275,FE,19,C9, 1, 1,16,mavlink_param_value_t,param_value,700,param_count,244,param_index,167,param_id,RNGFND_MAX_CM,param_type,4,,Len,33
2014-11-10T14:35:42.306,FE,19,CA, 1, 1,16,mavlink_param_value_t,param_value,-1,param_count,244,param_index,168,param_id,RNGFND_STOP_PIN,param_type,2,,Len,33
2014-11-10T14:35:42.306,FE,19,CB, 1, 1,16,mavlink_param_value_t,param_value,0,param_count,244,param_index,169,param_id,RNGFND_SETTLE_MS,param_type,4,,Len,33
2014-11-10T14:35:42.306,FE,19,CC, 1, 1,16,mavlink_param_value_t,param_value,1,param_count,244,param_index,170,param_id,RNGFND_RMETRIC,param_type,2,,Len,33
2014-11-10T14:35:42.306,FE, 9,D1,33,44,A6,mavlink_radio_t,rxerrors,324,fixed,599,rssi,112,remrssi,116,txbuf,100,noise,45,remnoise,18,,Len,17
2014-11-10T14:35:42.306,FE, 9,D1,33,44,6D,mavlink_radio_status_t,rxerrors,324,fixed,599,rssi,112,remrssi,116,txbuf,100,noise,45,remnoise,18,,Len,17
2014-11-10T14:35:42.369,FE,1C,CD, 1, 1,1E,mavlink_attitude_t,time_boot_ms,2100906,roll,-0.03228381,pitch,-0.005713132,yaw,1.605445,rollspeed,-0.2190688,pitchspeed,-0.02092498,yawspeed,0.05266188,,Len,36
2014-11-10T14:35:42.384,FE,14,CE, 1, 1,4A,mavlink_vfr_hud_t,airspeed,0.08,groundspeed,0.08,alt,79.01,climb,0,heading,92,throttle,97,,Len,28
2014-11-10T14:35:42.384,FE,19,CF, 1, 1,16,mavlink_param_value_t,param_value,0,param_count,244,param_index,171,param_id,RNGFND2_TYPE,param_type,2,,Len,33
2014-11-10T14:35:42.400,FE,19,D0, 1, 1,16,mavlink_param_value_t,param_value,-1,param_count,244,param_index,172,param_id,RNGFND2_PIN,param_type,2,,Len,33
2014-11-10T14:35:42.416,FE,19,D1, 1, 1,16,mavlink_param_value_t,param_value,3,param_count,244,param_index,173,param_id,RNGFND2_SCALING,param_type,9,,Len,33
2014-11-10T14:35:42.416,FE,1C,D2, 1, 1,21,mavlink_global_position_int_t,time_boot_ms,2101063,lat,406259227,lon,-754604173,alt,78510,relative_alt,1540,vx,7,vy,-7,vz,4,hdg,9280,,Len,36
2014-11-10T14:35:42.447,FE,19,D3, 1, 1,16,mavlink_param_value_t,param_value,0,param_count,244,param_index,174,param_id,RNGFND2_OFFSET,param_type,9,,Len,33
2014-11-10T14:35:42.462,FE,19,D4, 1, 1,16,mavlink_param_value_t,param_value,0,param_count,244,param_index,175,param_id,RNGFND2_FUNCTION,param_type,2,,Len,33
2014-11-10T14:35:42.462,FE,19,D5, 1, 1,16,mavlink_param_value_t,param_value,20,param_count,244,param_index,176,param_id,RNGFND2_MIN_CM,param_type,4,,Len,33
